No.,storeNumber,countryCode,ownershipTypeCode,latitude,longitude,address,city,countrySubdivisionCode,postalCode,windowsTimeZoneId,GMT,GMT_region,Mon_open,Mon_close,Tue_open,Tue_close,Wed_open,Wed_close,Thu_open,Thu_close,Fri_open,Fri_close,Sat_open,Sat_close,Sun_open,Sun_close
11239,20208-201324,US,LS,42.272958,-83.737583,701 Tappan Avenue,ann arbor,MI,48109,Eastern Standard Time,GMT-05:00,America/Detroit,08:00,15:00,08:00,15:00,08:00,15:00,08:00,15:00,08:00,15:00,08:00,15:00,08:00,15:00
11240,2482-27691,US,CO,42.274899,-83.734125,1214 South University Ave,ann arbor,MI,481042548,Eastern Standard Time,GMT-05:00,America/Detroit,05:30,22:00,05:30,22:00,05:30,22:00,05:30,22:00,05:30,22:00,06:00,21:00,06:00,21:00
11241,76576-99389,US,LS,42.243722,-83.769394,2000 Waters Rd,ann arbor,MI,481038999,Eastern Standard Time,GMT-05:00,America/Detroit,08:00,21:00,08:00,21:00,08:00,21:00,08:00,21:00,08:00,21:00,08:00,21:00,08:00,21:00
11242,19556-194345,US,LS,42.488351,-83.535337,27100 Wixom Rd,novi,MI,48374,Eastern Standard Time,GMT-05:00,America/Detroit,08:00,21:00,08:00,21:00,08:00,21:00,08:00,21:00,08:00,21:00,08:00,21:00,08:00,21:00
11243,23876-232124,US,CO,42.241399,-83.768042,3141 Ann Arbor-Saline Rd,ann arbor,MI,481039711,Eastern Standard Time,GMT-05:00,America/Detroit,05:30,21:00,05:30,21:00,05:30,21:00,05:30,21:00,05:30,21:00,06:00,21:00,06:00,20:00
11244,24496-74226,US,LS,42.525944,-83.514975,47060 Pontiac Trl,walled lake,MI,483904030,Eastern Standard Time,GMT-05:00,America/Detroit,07:00,20:00,07:00,20:00,07:00,20:00,07:00,20:00,07:00,20:00,07:00,20:00,07:00,20:00
11245,2438-17888,US,CO,42.240572,-83.746557,100 Briarwood Mall Cir|Suite K105|Briarwood Mall,ann arbor,MI,481081602,Eastern Standard Time,GMT-05:00,America/Detroit,09:00,20:00,09:00,20:00,09:00,20:00,09:00,20:00,09:00,21:00,09:00,21:00,09:00,18:00
11246,26894-245713,US,CO,42.490691,-83.515082,27212 Beck Rd,novi,MI,483741348,Eastern Standard Time,GMT-05:00,America/Detroit,05:30,21:00,05:30,21:00,05:30,21:00,05:30,21:00,05:30,21:00,05:30,21:00,05:30,21:00
11247,73549-75584,US,LS,33.372594,-117.254825,1133 S Mission Rd,fallbrook,CA,920283222,Pacific Standard Time,GMT-08:00,America/Los_Angeles,06:00,20:00,06:00,20:00,06:00,20:00,06:00,20:00,06:00,20:00,06:00,20:00,06:00,20:00
11248,25590-241424,US,CO,33.371477,-117.253129,1139 South Mission Road,fallbrook,CA,920283233,Pacific Standard Time,GMT-08:00,America/Los_Angeles,04:30,22:00,04:30,22:00,04:30,22:00,04:30,22:00,04:30,22:00,05:00,22:00,05:30,22:00
11249,10852-101663,US,CO,34.495397,-118.621991,31777 Castaic Road|The Vine at Castaic,castaic,CA,913843916,Pacific Standard Time,GMT-08:00,America/Los_Angeles,04:30,21:00,04:30,21:00,04:30,21:00,04:30,21:00,04:30,21:00,04:30,21:00,05:30,21:00
11250,59447-293145,US,LS,39.737529,-104.917455,1355 Krameria St,denver,CO,80220,Mountain Standard Time,GMT-07:00,America/Denver,06:00,20:00,06:00,20:00,06:00,20:00,06:00,20:00,06:00,20:00,06:00,20:00,06:00,20:00
11251,74705-96758,US,LS,39.737532,-104.915592,6220 E 14th St,denver,CO,802202747,Mountain Standard Time,GMT-07:00,America/Denver,06:00,19:00,06:00,19:00,06:00,19:00,06:00,19:00,06:00,19:00,06:00,19:00,06:00,19:00
11252,270-138,US,CO,39.729279,-104.94098,801 Colorado Blvd.,denver,CO,802064037,Mountain Standard Time,GMT-07:00,America/Denver,05:30,18:00,05:30,18:00,05:30,18:00,05:30,18:00,05:30,18:00,05:30,18:00,05:30,18:00
11253,237-230005,US,CO,39.720859,-104.956887,250 Columbine|160,denver,CO,802064728,Mountain Standard Time,GMT-07:00,America/Denver,05:00,20:00,05:00,20:00,05:00,20:00,05:00,20:00,05:00,20:00,05:30,20:00,05:30,20:00
11254,1541-116885,US,LS,34.936839,-80.838035,6271 Carolina Commons Dr,fort mill,SC,297075980,Eastern Standard Time,GMT-05:00,America/New_York,06:00,19:00,06:00,19:00,06:00,19:00,06:00,19:00,06:00,19:00,06:00,19:00,06:00,19:00
11255,50741-276111,US,CO,34.93814,-80.836537,7716 Charlotte Highway|100,indian land,SC,29707,Eastern Standard Time,GMT-05:00,America/New_York,05:00,21:00,05:00,21:00,05:00,21:00,05:00,21:00,05:00,21:30,05:30,21:30,06:00,21:00
11256,18564-98074,US,LS,34.95403,-80.759271,8157 Kesington Drive,waxhaw,NC,28173,Eastern Standard Time,GMT-05:00,America/New_York,07:00,20:00,07:00,20:00,07:00,20:00,07:00,20:00,07:00,20:00,07:00,20:00,07:00,20:00
11257,22077-213924,US,CO,35.016289,-80.801677,9700 Rea Rd|Ste A,waxhaw,NC,28173,Eastern Standard Time,GMT-05:00,America/New_York,05:30,20:30,05:30,20:30,05:30,20:30,05:30,20:30,05:30,20:30,06:00,20:30,06:00,20:30
11258,73918-103375,US,LS,35.02301,-80.848201,16625 Lancaster Hwy,charlotte,NC,282772038,Eastern Standard Time,GMT-05:00,America/New_York,07:00,20:00,07:00,20:00,07:00,20:00,07:00,20:00,07:00,20:00,07:00,20:00,07:00,20:00
11259,10241-99049,US,CO,35.034833,-80.8057,9820-A Rea Road|Blakeney,charlotte,NC,282776681,Eastern Standard Time,GMT-05:00,America/New_York,06:00,20:30,06:00,20:30,06:00,20:30,06:00,20:30,06:00,20:30,06:30,21:00,06:30,20:00
11260,79359-101268,US,LS,35.022479,-80.761232,13639 Providence Rd,weddington,NC,281049373,Eastern Standard Time,GMT-05:00,America/New_York,07:00,20:00,07:00,20:00,07:00,20:00,07:00,20:00,07:00,20:00,07:00,20:00,07:00,20:00
11261,19910-202325,US,LS,34.939106,-80.98005,1900 Springsteen Rd,rock hill,SC,29730,Eastern Standard Time,GMT-05:00,America/New_York,08:00,21:00,08:00,21:00,08:00,21:00,08:00,21:00,08:00,21:00,08:00,21:00,08:00,21:00
11262,9279-94778,US,CO,34.976351,-80.989665,1303 Riverchase Blvd.,rock hill,SC,297322793,Eastern Standard Time,GMT-05:00,America/New_York,05:30,22:00,05:30,22:00,05:30,22:00,05:30,22:00,05:00,22:00,05:30,22:30,06:30,21:30
11263,76939-128669,US,LS,34.999554,-80.696796,6350 Weddington Monroe Rd,wesley chapel,NC,281047924,Eastern Standard Time,GMT-05:00,America/New_York,08:00,21:00,08:00,21:00,08:00,21:00,08:00,21:00,08:00,21:00,08:00,21:00,08:00,21:00
11264,49192-267306,US,CO,35.025451,-80.962047,1343 Broadcloth Street,fort mill,SC,29715,Eastern Standard Time,GMT-05:00,America/New_York,05:00,20:00,05:00,20:00,05:00,20:00,05:00,20:00,05:00,20:00,05:30,20:00,05:30,20:00
11265,9499-96615,US,CO,35.028857,-80.967069,926 Market Street|Baxter Town Village,fort mill,SC,297086443,Eastern Standard Time,GMT-05:00,America/New_York,05:00,21:00,05:00,21:00,05:00,17:00,05:00,21:00,05:00,21:00,05:00,21:00,05:30,21:00
11266,25487-233567,US,LS,35.057858,-80.936008,500 Mercantile Pl,fort mill,SC,29715,Eastern Standard Time,GMT-05:00,America/New_York,06:00,19:00,06:00,19:00,06:00,19:00,06:00,19:00,06:00,19:00,06:00,19:00,06:00,19:00
11267,16622-93621,US,LS,35.033461,-80.970471,1750 Hwy 160 W,fort mill,SC,29708,Eastern Standard Time,GMT-05:00,America/New_York,06:00,19:00,06:00,19:00,06:00,19:00,06:00,19:00,06:00,19:00,06:00,19:00,06:00,19:00
11268,48156-256287,US,CO,34.943103,-81.029771,610 N Cherry Rd,rock hill,SC,297323120,Eastern Standard Time,GMT-05:00,America/New_York,05:00,22:00,05:00,22:00,05:00,22:00,05:00,22:00,05:00,23:00,05:30,23:00,06:00,22:00
11269,5024-139804,US,LS,34.9415,-81.0309,2020 Alumni Dr,rock hill,SC,297321830,Eastern Standard Time,GMT-05:00,America/New_York,07:30,21:00,07:30,21:00,07:30,21:00,07:30,21:00,07:30,21:00,09:00,21:00,11:00,21:00
11270,18531-182667,US,LS,34.97598,-81.027834,2750 Celanese Rd,rock hill,SC,29732,Eastern Standard Time,GMT-05:00,America/New_York,06:00,19:00,06:00,19:00,06:00,19:00,06:00,19:00,06:00,19:00,06:00,19:00,06:00,19:00
11271,58164-291743,US,CO,34.957042,-81.047406,128 S. Herlong Ave|101,rock hill,SC,29732,Eastern Standard Time,GMT-05:00,America/New_York,05:00,21:00,05:00,21:00,05:00,21:00,05:00,21:00,05:00,21:00,05:30,21:00,06:00,21:00
11272,54162-284286,US,LS,35.069943,-80.701077,1351 CHESTNUT LANE,matthews,NC,28104,Eastern Standard Time,GMT-05:00,America/New_York,07:00,20:00,07:00,20:00,07:00,20:00,07:00,20:00,07:00,20:00,07:00,20:00,07:00,20:00
11273,18318-189384,US,LS,35.063405,-80.994405,867 Stockbridge Dr.,fort mill,SC,29708,Eastern Standard Time,GMT-05:00,America/New_York,06:00,19:00,06:00,19:00,06:00,19:00,06:00,19:00,06:00,19:00,06:00,19:00,06:00,19:00
11274,55626-98068,US,LS,35.048431,-80.64766,6610 Old Monroe Rd.,indian trail,NC,28079,Eastern Standard Time,GMT-05:00,America/New_York,06:00,19:00,06:00,19:00,06:00,19:00,06:00,19:00,06:00,19:00,06:00,19:00,06:00,19:00
11275,13475-107336,US,CO,35.048516,-80.646536,6701 Old Monroe Rd|Suite A|Sun Valley Shopping Center,indian trail,NC,280796627,Eastern Standard Time,GMT-05:00,America/New_York,05:30,21:30,05:30,21:30,05:30,21:30,05:30,21:30,05:30,21:30,06:00,21:30,06:00,21:00
11276,76601-97457,US,LS,35.100337,-80.985068,12830 Walker Branch Dr,charlotte,NC,282738850,Eastern Standard Time,GMT-05:00,America/New_York,08:00,21:00,08:00,21:00,08:00,21:00,08:00,21:00,08:00,21:00,08:00,21:00,08:00,21:00
11277,10389-241727,US,CO,35.100631,-80.99199,13129 S. Tryon St.|Suite 100,charlotte,NC,282787914,Eastern Standard Time,GMT-05:00,America/New_York,05:30,18:00,05:30,18:00,05:30,18:00,05:30,21:00,05:30,18:00,06:00,18:00,06:00,18:00
11278,58388-292406,US,CO,35.084242,-80.660501,13731 E. Independence Blvd,indian trail,NC,28079,Eastern Standard Time,GMT-05:00,America/New_York,05:00,21:30,05:00,21:30,05:00,21:30,05:00,21:30,05:00,22:00,05:30,22:00,05:30,21:30
11279,16408-169145,US,LS,35.103303,-80.990901,13000 S Tryon St,charlotte,NC,282787652,Eastern Standard Time,GMT-05:00,America/New_York,06:00,19:00,06:00,19:00,06:00,19:00,06:00,19:00,06:00,19:00,06:00,19:00,06:00,19:00
11280,79321-98575,US,LS,37.731376,-84.274008,890 Richmond Plaza,richmond,KY,404752564,Eastern Standard Time,GMT-05:00,America/New_York,07:00,20:00,07:00,20:00,07:00,20:00,07:00,20:00,07:00,20:00,07:00,20:00,07:00,20:00
11281,13976-108075,US,CO,37.111801,-84.100302,2021 West Highway 192,london,KY,407411620,Eastern Standard Time,GMT-05:00,America/New_York,05:30,21:00,05:30,21:00,05:30,21:00,05:30,21:00,05:30,21:00,05:30,21:00,05:30,21:00
11282,62083-295424,US,CO,37.063858,-84.621782,150 Makena Drive,somerset,KY,42503,Eastern Standard Time,GMT-05:00,America/New_York,06:00,21:00,06:00,21:00,06:00,21:00,06:00,21:00,06:00,21:00,06:00,21:00,06:00,21:00
11283,23823-201465,US,LS,36.148682,-115.334846,West Sahara Blvd & 215 Beltway,las vegas,NV,89135,Pacific Standard Time,GMT-08:00,America/Los_Angeles,09:00,20:00,09:00,20:00,09:00,20:00,09:00,20:00,09:00,20:00,09:00,20:00,09:00,18:00
11284,73695-106017,US,LS,36.160716,-115.350634,11720 W. CHARLESTON BLVD,las vegas,NV,891351572,Pacific Standard Time,GMT-08:00,America/Los_Angeles,06:00,20:00,06:00,20:00,06:00,20:00,06:00,20:00,06:00,20:00,06:00,20:00,06:00,20:00
11285,73634-93062,US,LS,36.116641,-115.313701,10140 W Flamingo Rd,las vegas,NV,891478385,Pacific Standard Time,GMT-08:00,America/Los_Angeles,06:00,20:00,06:00,20:00,06:00,20:00,06:00,20:00,06:00,20:00,06:00,20:00,06:00,20:00
11286,9919-95993,US,CO,36.114527,-115.304553,9701 W. Flamingo Road|#1,las vegas,NV,891475736,Pacific Standard Time,GMT-08:00,America/Los_Angeles,04:30,20:00,04:30,20:00,04:30,20:00,04:30,20:00,04:30,20:00,04:30,20:00,04:30,20:00
11287,3984-146749,US,LS,36.113632,-115.30696,4155 S Grand Canyon Dr,las vegas,NV,891477123,Pacific Standard Time,GMT-08:00,America/Los_Angeles,08:00,21:00,08:00,21:00,08:00,21:00,08:00,21:00,08:00,21:00,08:00,21:00,08:00,21:00
11288,6917-85887,US,CO,36.099256,-115.296754,4916 S. Ft. Apache Road|#1A|Tropicana Beltway Center,las vegas,NV,891481737,Pacific Standard Time,GMT-08:00,America/Los_Angeles,04:30,21:30,04:30,21:30,04:30,21:30,04:30,21:30,04:30,21:30,04:30,21:30,05:30,21:00
11289,10394-100302,US,CO,36.077366,-115.29799,6105 S. Ft. Apache Rd.|Lynden Square,las vegas,NV,891486738,Pacific Standard Time,GMT-08:00,America/Los_Angeles,05:00,21:00,05:00,21:00,05:00,21:00,05:00,21:00,05:00,21:00,06:00,21:00,06:00,21:00
11290,73679-101565,US,LS,36.098897,-115.223894,5975 W. Tropicana Ave,las vegas,NV,891034814,Pacific Standard Time,GMT-08:00,America/Los_Angeles,06:00,20:00,06:00,20:00,06:00,20:00,06:00,20:00,06:00,20:00,06:00,20:00,06:00,20:00
11291,5635-2088,US,CO,36.100498,-115.209113,4985 W. Tropicana Avenue|100,las vegas,NV,891037078,Pacific Standard Time,GMT-08:00,America/Los_Angeles,05:00,21:00,04:30,00:00,04:30,00:00,04:30,00:00,04:30,00:00,04:30,00:00,04:30,00:00
11292,25811-240265,US,CO,36.05948,-115.278779,7050 S. Durango Drive,las vegas,NV,891132023,Pacific Standard Time,GMT-08:00,America/Los_Angeles,04:30,21:30,04:30,21:30,04:30,21:30,04:30,21:30,04:30,21:30,04:30,21:30,04:30,21:30
11293,9497-96698,US,CO,36.072521,-115.242901,6365 S. Rainbow Blvd.|#100,las vegas,NV,891183223,Pacific Standard Time,GMT-08:00,America/Los_Angeles,05:00,20:00,05:00,20:00,05:00,20:00,05:00,20:00,05:00,20:00,05:30,20:00,06:00,20:00
11294,74639-94680,US,LS,36.053929,-115.281053,7405 S Durango Dr,las vegas,NV,891133605,Pacific Standard Time,GMT-08:00,America/Los_Angeles,06:00,20:00,06:00,20:00,06:00,20:00,06:00,20:00,06:00,20:00,06:00,20:00,06:00,20:00
11295,56178-289923,US,LS,36.054345,-115.277456,8525 West Warm Springs Rd,las vegas,NV,89113,Pacific Standard Time,GMT-08:00,America/Los_Angeles,06:00,21:00,06:00,21:00,06:00,21:00,06:00,21:00,06:00,21:00,06:00,21:00,06:00,21:00
11296,70342-131805,US,LS,47.634821,-122.200866,2636 Bellevue Way NE,bellevue,WA,980042209,Pacific Standard Time,GMT-08:00,America/Los_Angeles,05:00,19:00,05:00,19:00,05:00,19:00,05:00,19:00,05:00,19:00,05:00,19:00,05:00,19:00
11297,15731-155524,US,CO,47.621016,-122.186329,1231 116th Ave. NE|25,bellevue,WA,980043804,Pacific Standard Time,GMT-08:00,America/Los_Angeles,05:30,13:00,05:30,13:00,05:30,13:00,05:30,13:00,05:30,13:00,Closed,Closed,Closed,Closed
11298,352-234,US,CO,47.656544,-122.206668,2255 Carillon Point,kirkland,WA,980337446,Pacific Standard Time,GMT-08:00,America/Los_Angeles,05:30,18:00,05:30,18:00,05:30,18:00,05:30,18:00,05:30,18:00,06:00,18:00,06:00,18:00
11299,3333-26407,US,CO,47.666418,-122.196785,6733 108th Ave NE,kirkland,WA,980337056,Pacific Standard Time,GMT-08:00,America/Los_Angeles,05:30,19:00,Closed,Closed,07:00,14:00,07:00,14:00,05:30,19:00,06:00,18:30,06:00,18:30
11300,10766-277364,US,CO,47.665783,-122.164373,6735 132nd Ave NE|100,kirkland,WA,98033,Pacific Standard Time,GMT-08:00,America/Los_Angeles,05:00,20:00,05:00,20:00,05:00,20:00,05:00,20:00,05:00,20:00,05:00,20:00,05:00,20:00
11301,11384-95451,US,CO,47.675851,-122.206511,116 Lake Street,kirkland,WA,980336140,Pacific Standard Time,GMT-08:00,America/Los_Angeles,05:00,19:30,05:00,20:30,05:00,20:30,05:00,20:30,05:00,20:30,06:00,20:30,06:00,20:30
11302,58445-260105,US,LS,47.677452,-122.199471,425 Urban Plaza|100,kirkland,WA,98033,Pacific Standard Time,GMT-08:00,America/Los_Angeles,06:00,19:00,06:00,19:00,06:00,19:00,06:00,19:00,06:00,19:00,06:00,19:00,06:00,19:00
11303,3414-88083,US,CO,47.679027,-122.177953,12209 NE 85th St,kirkland,WA,980338036,Pacific Standard Time,GMT-08:00,America/Los_Angeles,00:00,00:00,00:00,00:00,00:00,00:00,00:00,00:00,00:00,00:00,00:00,00:00,00:00,00:00
11304,74160-30879,US,LS,47.678863,-122.173714,12519 NE 85th St.,kirkland,WA,980338048,Pacific Standard Time,GMT-08:00,America/Los_Angeles,06:00,19:00,06:00,19:00,06:00,19:00,06:00,19:00,06:00,19:00,06:00,19:00,06:00,19:00
11305,3702-92,US,CO,47.634097,-122.280829,4000 East Madison St,seattle,WA,981123160,Pacific Standard Time,GMT-08:00,America/Los_Angeles,04:30,20:00,04:30,20:00,04:30,20:00,04:30,20:00,04:30,20:00,05:00,20:00,05:00,20:00
11306,8890-151149,US,CO,47.662275,-122.280932,"4800 Sand Point Way, NE|7th Fl",seattle,WA,981053901,Pacific Standard Time,GMT-08:00,America/Los_Angeles,06:00,18:00,06:00,18:00,06:00,18:00,06:00,18:00,06:00,18:00,Closed,Closed,Closed,Closed
11307,61932-294207,US,CO,47.663162,-122.282738,4800 Sand Point Way NE|River Level 3,seattle,WA,98105,Pacific Standard Time,GMT-08:00,America/Los_Angeles,05:00,20:00,05:00,20:00,05:00,20:00,05:00,20:00,05:00,20:00,05:00,20:00,05:00,20:00
11308,349-74803,US,CO,47.674929,-122.128872,15738 Redmond Way|Pad 3|Redmond Center,redmond,WA,980523830,Pacific Standard Time,GMT-08:00,America/Los_Angeles,04:30,21:30,04:30,21:30,04:30,21:30,04:30,21:30,04:30,22:30,04:30,22:30,06:00,21:00
11309,79333-101222,US,LS,47.675621,-122.128894,15800 Redmond Way NE,redmond,WA,980523829,Pacific Standard Time,GMT-08:00,America/Los_Angeles,06:00,19:00,06:00,19:00,06:00,19:00,06:00,19:00,06:00,19:00,06:00,19:00,06:00,19:00
11310,65796-299464,US,CO,47.675011,-122.125083,8020 161st Ave NE|2,redmond,WA,98052,Pacific Standard Time,GMT-08:00,America/Los_Angeles,05:00,17:00,05:00,17:00,05:00,17:00,05:00,17:00,05:00,17:00,05:00,17:00,05:00,17:00
11311,3238-1636,US,CO,47.602082,-122.285387,121 Lakeside Ave|Ste F,seattle,WA,981226599,Pacific Standard Time,GMT-08:00,America/Los_Angeles,06:00,17:30,05:30,18:30,05:30,18:30,05:30,18:30,05:30,18:30,06:00,18:30,06:00,18:30
11312,378-203,US,CO,47.681058,-122.1259,8867 161st Avenue NE,redmond,WA,980523585,Pacific Standard Time,GMT-08:00,America/Los_Angeles,05:30,19:30,05:30,19:30,05:30,19:30,05:30,19:30,05:30,19:30,06:00,19:00,06:00,19:00
11313,73957-102105,US,LS,47.662475,-122.296762,2746 NE 45th Street,seattle,WA,981055099,Pacific Standard Time,GMT-08:00,America/Los_Angeles,06:00,20:00,06:00,20:00,06:00,20:00,06:00,20:00,06:00,20:00,06:00,20:00,06:00,20:00
11314,5076-148145,US,LS,47.617997,-122.30353,2201 E Madison,seattle,WA,981125336,Pacific Standard Time,GMT-08:00,America/Los_Angeles,05:30,19:00,05:30,19:00,05:30,19:00,05:30,19:00,05:30,19:00,05:30,19:00,05:30,19:00
11315,20088-202265,US,CO,47.661662,-122.29936,2617 NE 46th St,seattle,WA,981055041,Pacific Standard Time,GMT-08:00,America/Los_Angeles,06:30,20:00,06:30,20:00,06:30,20:00,06:30,20:00,06:30,20:00,06:30,20:00,06:30,20:00
11316,7460-5524,US,CO,38.853749,-77.049154,2231 Crystal Drive|Suite 160,arlington,VA,222023711,Eastern Standard Time,GMT-05:00,America/New_York,05:00,19:00,05:00,19:00,05:00,19:00,05:00,19:00,05:00,19:00,06:00,18:00,06:00,18:00
11317,21357-178964,US,CO,42.10956,-87.87476,3840 Willow Rd,northbrook,IL,600626150,Central Standard Time,GMT-06:00,America/Chicago,05:00,20:00,05:00,20:00,05:00,20:00,05:00,20:00,05:00,20:00,06:00,20:00,06:00,20:00
11318,247-286780,US,CO,42.105961,-87.847639,2760 Willow Rd,glenview,IL,600626519,Central Standard Time,GMT-06:00,America/Chicago,04:30,20:00,04:30,18:00,04:30,18:00,04:30,18:00,04:30,18:00,05:00,16:00,07:00,12:00
11319,11961-103872,US,CO,42.136949,-87.791542,820 Skokie Blvd,northbrook,IL,600624001,Central Standard Time,GMT-06:00,America/Chicago,04:30,20:00,04:30,16:00,04:30,16:00,04:30,16:00,04:30,16:00,05:00,16:00,08:30,14:00
11320,51729-253651,US,LS,42.105464,-87.813046,2241 WILLOW ROAD,glenview,IL,60025,Central Standard Time,GMT-06:00,America/Chicago,08:00,20:00,08:00,20:00,08:00,20:00,08:00,20:00,08:00,20:00,07:00,20:00,08:00,20:00
11321,10777-102332,US,CO,42.106643,-87.80372,1036 Willow Rd.,northbrook,IL,600626817,Central Standard Time,GMT-06:00,America/Chicago,05:00,20:30,05:00,20:30,05:00,18:00,05:00,20:30,05:00,20:30,05:30,20:00,06:00,20:00
11322,7861-83522,US,CO,40.871004,-72.798811,485 CR-111,manorville,NY,11949,Eastern Standard Time,GMT-05:00,America/New_York,05:30,20:00,05:30,20:00,05:30,20:00,05:30,20:00,05:30,20:00,05:30,20:00,06:00,20:00
11323,14611-121465,US,CO,30.220767,-85.649954,2424 S. Hwy 77,lynn haven,FL,324444722,Central Standard Time,GMT-06:00,America/Chicago,05:00,21:00,05:00,21:00,05:00,21:00,05:00,21:00,05:00,21:00,05:00,21:00,05:00,21:00
11324,8732-83810,US,CO,30.188984,-85.649441,2296-A Martin Luther King Blvd,panama city,FL,324055321,Central Standard Time,GMT-06:00,America/Chicago,05:30,20:00,05:30,20:00,05:30,20:00,05:30,20:00,05:30,20:00,05:30,20:00,05:30,20:00
11325,13317-103549,US,CO,30.162896,-85.590511,740 N Tyndall Pkwy,callaway,FL,324043218,Central Standard Time,GMT-06:00,America/Chicago,05:00,21:00,05:00,21:00,05:00,21:00,05:00,21:00,05:00,21:00,05:30,21:00,05:30,21:00
11326,57608-290019,US,CO,30.195692,-85.812743,98 Richard Jackson Blvd,panama city beach,FL,32407,Central Standard Time,GMT-06:00,America/Chicago,05:30,21:00,05:30,21:00,05:30,21:00,05:30,21:00,05:30,21:00,05:30,21:00,06:00,21:00
11327,75946-100144,US,LS,30.206516,-85.858841,14700 Front Beach Road,panama city beach,FL,324133519,Central Standard Time,GMT-06:00,America/Chicago,06:00,17:00,07:00,17:00,07:00,17:00,07:00,17:00,06:00,17:00,06:00,17:00,06:00,17:00
11328,50270-271267,US,CO,30.219616,-85.865221,15463 Panama City Beach Parkway,panama city beach,FL,324135435,Central Standard Time,GMT-06:00,America/Chicago,05:30,21:00,05:30,21:00,05:30,21:00,05:30,21:00,05:30,21:30,05:30,21:30,05:30,21:00
11329,76701-104529,US,LS,30.2191,-85.86858,15555 Starfish St,panama city beach,FL,324132457,Central Standard Time,GMT-06:00,America/Chicago,08:00,21:00,08:00,21:00,08:00,21:00,08:00,21:00,08:00,21:00,08:00,21:00,08:00,21:00
11330,11718-102442,US,CO,30.217885,-85.874309,600 Pier Park Dr.|Suite 110,panama city beach,FL,324132169,Central Standard Time,GMT-06:00,America/Chicago,06:30,21:30,06:30,21:30,06:30,21:30,06:30,21:30,06:30,21:30,06:30,21:30,07:00,20:30
11331,62810-296631,US,LS,30.281593,-86.019628,10343 E County Hwy 30A|126,seacrest,FL,32413,Central Standard Time,GMT-06:00,America/Chicago,07:00,14:00,07:00,14:00,07:00,14:00,07:00,14:00,07:00,14:00,07:00,14:00,07:00,14:00
11332,20846-195124,US,CO,30.378039,-86.310201,780 Grand Blvd|120|Grand Boulevard,miramar beach,FL,325507873,Central Standard Time,GMT-06:00,America/Chicago,05:00,21:00,05:00,19:00,05:00,19:00,05:00,19:00,05:00,19:00,05:00,19:00,05:30,19:00
11333,11250-103920,US,CO,30.377419,-86.349045,10410 US Hwy 98 West,destin,FL,325504191,Central Standard Time,GMT-06:00,America/Chicago,06:30,17:00,06:30,17:00,06:30,17:00,06:30,17:00,06:30,17:00,06:30,17:00,06:30,17:00
11334,8558-75466,US,CO,30.392012,-86.424179,4140 LEGANDARY DR|Suite B105,destin,FL,325415389,Central Standard Time,GMT-06:00,America/Chicago,07:00,21:00,07:00,21:00,07:00,21:00,07:00,21:00,07:00,21:00,07:00,21:00,07:00,19:00
11335,52168-279844,US,CO,30.388799,-86.43008,34881 Emerald Coast Pkwy,destin,FL,325413401,Central Standard Time,GMT-06:00,America/Chicago,05:00,21:00,05:00,21:00,05:00,21:00,05:00,21:00,05:00,21:00,05:00,21:00,05:00,21:00
11336,5106-144964,US,LS,38.258077,-85.642755,4174 Westport Rd,st. matthews,KY,402072784,Eastern Standard Time,GMT-05:00,America/New_York,08:00,21:00,08:00,21:00,08:00,21:00,08:00,21:00,08:00,21:00,08:00,21:00,08:00,21:00
11337,2561-34239,US,CO,38.250769,-85.634462,4400 Shelbyville Road,louisville,KY,402073322,Eastern Standard Time,GMT-05:00,America/New_York,05:30,21:00,05:30,21:00,05:30,19:00,05:30,21:00,05:30,21:00,05:30,21:00,05:30,21:00
11338,10559-101595,US,CO,38.253043,-85.660613,3702 Frankfort Avenue,louisville,KY,402072557,Eastern Standard Time,GMT-05:00,America/New_York,05:30,21:00,05:30,21:00,05:30,19:00,05:30,21:00,05:30,21:00,05:30,21:00,06:00,20:30
11339,2663-230524,US,CO,38.283099,-85.632644,4942 US Hwy 42,louisville,KY,40222,Eastern Standard Time,GMT-05:00,America/New_York,05:30,20:30,05:30,20:30,05:30,19:00,05:30,20:30,05:30,20:30,05:30,20:30,06:00,20:30
11340,59997-292923,US,CO,38.230018,-85.639871,6460 Dutchmans Pkwy|101,louisville,KY,40205,Eastern Standard Time,GMT-05:00,America/New_York,05:30,21:00,05:30,21:00,05:30,19:00,05:30,21:00,05:30,21:00,05:30,21:00,05:30,21:00
11341,11798-104406,US,CO,38.219533,-85.626685,3954 Taylorsville Rd.,louisville,KY,402201450,Eastern Standard Time,GMT-05:00,America/New_York,05:30,21:00,05:30,21:00,05:30,19:00,05:30,21:00,05:30,21:00,05:30,21:00,05:30,21:00
11342,2541-31920,US,CO,38.246718,-85.576563,101 No Hurstbourne Ln|Haverty Retail Complex,louisville,KY,402225107,Eastern Standard Time,GMT-05:00,America/New_York,05:30,21:00,05:30,21:00,05:30,19:00,05:30,21:00,05:30,21:00,05:30,21:00,05:30,21:00
11343,9982-99152,US,CO,38.20561,-85.666221,3401 Bardstown Road,louisville,KY,402184607,Eastern Standard Time,GMT-05:00,America/New_York,05:30,20:00,05:30,20:00,05:30,20:00,05:30,20:00,05:30,20:00,06:00,20:00,06:00,20:00
11344,76327-96267,US,LS,38.215452,-85.594947,4640 Taylorsville Rd,louisville,KY,402203588,Eastern Standard Time,GMT-05:00,America/New_York,08:00,21:00,08:00,21:00,08:00,21:00,08:00,21:00,08:00,21:00,08:00,21:00,08:00,21:00
11345,2633-61900,US,CO,38.214389,-85.591411,9036 Taylorsville Road|Stoneybrook Shopping Center,jeffersontown,KY,402991750,Eastern Standard Time,GMT-05:00,America/New_York,05:30,20:30,05:30,20:30,05:30,19:00,05:30,20:30,05:30,20:30,05:30,20:30,06:30,20:30
11346,11510-105261,US,CO,38.226644,-85.577178,1321 S. Hurstborne Pkwy,louisville,KY,402225707,Eastern Standard Time,GMT-05:00,America/New_York,05:30,21:00,05:30,21:00,05:30,19:00,05:30,21:00,05:30,21:00,05:30,21:00,05:30,21:00
11347,25993-74181,US,LS,38.213482,-85.588583,9080 Taylorsville,louisville,KY,402991750,Eastern Standard Time,GMT-05:00,America/New_York,07:00,20:00,07:00,20:00,07:00,20:00,07:00,20:00,07:00,20:00,07:00,20:00,07:00,20:00
11348,20789-208084,US,LS,38.199884,-85.670239,3600 Mall Road,louisville,KY,40218,Eastern Standard Time,GMT-05:00,America/New_York,08:00,21:00,08:00,21:00,08:00,21:00,08:00,21:00,08:00,21:00,08:00,21:00,08:00,21:00
11349,2487-17855,US,CO,38.240012,-85.724385,972 Baxter Avenue|Baxter Station,louisville,KY,402042064,Eastern Standard Time,GMT-05:00,America/New_York,05:30,21:00,05:30,21:00,05:30,19:00,05:30,21:00,05:30,21:00,05:30,21:00,05:30,21:00
11350,47272-74167,US,LS,38.305615,-85.575462,9440 Brownsboro Rd,louisville,KY,40241,Eastern Standard Time,GMT-05:00,America/New_York,07:00,20:00,07:00,20:00,07:00,20:00,07:00,20:00,07:00,20:00,07:00,20:00,07:00,20:00
11351,2562-39140,US,CO,38.308078,-85.576444,4001 Summit Plaza Dr|Ste G15,louisville,KY,402418103,Eastern Standard Time,GMT-05:00,America/New_York,05:30,20:00,05:30,20:00,05:30,19:00,05:30,20:00,05:30,20:00,05:30,20:00,05:30,20:00
11352,48839-263350,US,LS,38.248473,-85.749092,555 Floyd Street,louisville,KY,40202,Eastern Standard Time,GMT-05:00,America/New_York,06:30,17:00,06:30,17:00,06:30,17:00,06:30,17:00,06:30,17:00,Closed,Closed,Closed,Closed
11353,2464-226344,US,CO,38.340155,-85.619488,9205 US Highway 42,prospect,KY,40059,Eastern Standard Time,GMT-05:00,America/New_York,05:30,20:00,05:30,20:00,05:30,19:00,05:30,20:00,05:30,20:00,06:00,20:00,06:00,20:00
11354,58694-292792,US,CO,38.279045,-85.746517,901 Gateway Drive,jeffersonville,IN,471303640,Eastern Standard Time,GMT-05:00,America/New_York,05:30,21:00,05:30,21:00,05:30,19:00,05:30,21:00,05:30,21:30,06:00,21:30,06:00,21:00
11355,75811-91587,US,LS,38.25349,-85.754921,280 W Jefferson St,louisville,KY,402021432,Eastern Standard Time,GMT-05:00,America/New_York,06:30,13:00,06:30,13:00,06:30,13:00,06:30,13:00,06:30,13:00,06:30,13:00,06:30,13:00
11356,52426-281186,US,LS,38.330712,-85.709344,1027 Jeffersonville Commons,jeffersonville,IN,47130,Eastern Standard Time,GMT-05:00,America/New_York,07:00,20:00,07:00,20:00,07:00,20:00,07:00,20:00,07:00,20:00,07:00,20:00,07:00,20:00
11357,52017-277725,US,LS,38.253289,-85.756918,311 S 4th street,louisville,KY,40222,Eastern Standard Time,GMT-05:00,America/New_York,07:00,18:00,07:00,18:00,07:00,18:00,07:00,18:00,07:00,18:00,07:00,18:00,07:00,18:00
11358,51556-263105,US,LS,38.217387,-85.755013,2100 S. Floyd Street,louisville,KY,40292,Eastern Standard Time,GMT-05:00,America/New_York,07:30,17:00,07:30,17:00,07:30,17:00,07:30,17:00,07:30,17:00,Closed,Closed,Closed,Closed
11359,48711-263106,US,LS,38.216763,-85.760684,2301 S. 3rd Street,louisville,KY,40208,Eastern Standard Time,GMT-05:00,America/New_York,07:30,20:00,07:30,20:00,07:30,20:00,07:30,20:00,07:30,18:00,10:00,17:00,12:00,20:00
11360,47242-256984,US,LS,38.185691,-85.741456,600 Terminal Dr,louisville,KY,402099129,Eastern Standard Time,GMT-05:00,America/New_York,05:00,13:00,05:00,13:00,05:00,13:00,05:00,13:00,05:00,13:00,05:00,13:00,05:00,13:00
11361,47238-256766,US,LS,38.183771,-85.740595,600 Terminal Dr,louisville,KY,402099129,Eastern Standard Time,GMT-05:00,America/New_York,04:45,18:00,04:45,18:00,04:45,18:00,04:45,18:00,04:45,18:00,04:45,18:00,04:45,18:00
11362,49736-253428,US,LS,38.202626,-85.761469,3165 SOUTH SECOND ST,louisville,KY,40208,Eastern Standard Time,GMT-05:00,America/New_York,07:00,20:00,07:00,20:00,07:00,20:00,07:00,20:00,07:00,20:00,07:00,20:00,07:00,20:00
11363,11181-100305,US,CO,38.204425,-85.763717,3103 S. Third Street,louisville,KY,402141707,Eastern Standard Time,GMT-05:00,America/New_York,05:00,21:00,05:00,21:00,05:00,19:00,05:00,21:00,05:00,21:00,05:00,21:00,05:30,21:00
11364,76452-97606,US,LS,38.3096,-85.7661,1125 Veterans Pkwy,clarksville,IN,471292371,Eastern Standard Time,GMT-05:00,America/New_York,08:00,21:00,08:00,21:00,08:00,21:00,08:00,21:00,08:00,21:00,08:00,21:00,08:00,21:00
11365,28174-249504,US,CO,38.328672,-85.760424,1231 Veterans Parkway,clarksville,IN,471292400,US Eastern Standard Time,GMT-05:00,America/New_York,05:30,21:00,05:30,19:00,05:30,19:00,05:30,21:00,05:30,21:00,06:00,21:00,06:00,21:00
11366,79287-99892,US,LS,38.305482,-85.838196,200 New Albany Plaza,new albany,IN,471504658,Eastern Standard Time,GMT-05:00,America/New_York,07:00,20:00,07:00,20:00,07:00,20:00,07:00,20:00,07:00,20:00,07:00,20:00,07:00,20:00
11367,19563-193164,US,CO,38.307283,-85.841363,2220 State Street,new albany,IN,471504925,Eastern Standard Time,GMT-05:00,America/New_York,05:00,21:00,05:00,21:00,05:00,19:00,05:00,21:00,05:00,21:00,05:00,21:00,05:00,21:00
11368,29013-248850,US,LS,38.167645,-85.82614,4915 Dixie Highway,louisville,KY,40216,Eastern Standard Time,GMT-05:00,America/New_York,07:00,20:00,07:00,20:00,07:00,20:00,07:00,20:00,07:00,20:00,07:00,20:00,07:00,20:00
11369,10509-101064,US,CO,38.15182,-85.835959,6731 Dixie Highway|Dixie Manor Shopping Center,louisville,KY,402583911,Eastern Standard Time,GMT-05:00,America/New_York,05:00,21:00,05:00,21:00,05:00,19:00,05:00,21:00,05:00,21:00,05:30,21:00,05:30,21:00
11370,27627-247806,US,CO,37.992063,-85.706401,174 Keystone Crossing Drive,shepherdsville,KY,401656005,Eastern Standard Time,GMT-05:00,America/New_York,04:30,22:30,04:30,22:30,04:30,19:00,04:30,22:30,04:30,22:30,04:30,22:30,04:30,22:30
11371,59499-293586,US,LS,37.894126,-85.947006,127 Gold Vault Rd.,fort knox,KY,40121,Eastern Standard Time,GMT-05:00,America/New_York,07:00,18:00,07:00,18:00,07:00,18:00,07:00,18:00,07:00,18:00,08:00,17:00,08:00,17:00
11372,24578-237274,US,LS,37.828518,-85.464654,102 W John Rowan Blvd,bardstown,KY,40004,Eastern Standard Time,GMT-05:00,America/New_York,07:00,20:00,07:00,20:00,07:00,20:00,07:00,20:00,07:00,20:00,07:00,20:00,07:00,20:00
11373,3568-106014,US,LS,37.867831,-85.944468,75 Estrada Ave|BLDG 9000,fort knox,KY,40121,Eastern Standard Time,GMT-05:00,America/New_York,06:00,14:00,06:00,14:00,06:00,14:00,06:00,14:00,06:00,14:00,Closed,Closed,Closed,Closed
11374,13447-106922,US,CO,30.40204,-88.976614,2404 Pass Rd,biloxi,MS,395312123,Central Standard Time,GMT-06:00,America/Chicago,05:00,21:00,05:00,21:00,05:00,18:30,05:00,21:00,05:00,21:00,05:30,21:00,05:30,21:00
11375,13498-103959,US,CO,30.437321,-89.096521,15299 Crossroads Pkwy|Suite 100,gulfport,MS,395033570,Central Standard Time,GMT-06:00,America/Chicago,04:30,21:00,04:30,21:00,04:30,18:30,04:30,21:00,04:30,21:30,05:00,21:30,05:00,21:30
11376,13531-106377,US,CO,42.237164,-83.680869,3650 Carpenter Rd.,pittsfield,MI,48104,Eastern Standard Time,GMT-05:00,America/Detroit,05:30,21:00,05:30,21:00,05:30,21:00,05:30,21:00,05:30,21:00,05:30,21:00,05:30,21:00
11377,18954-194328,US,LS,42.235101,-83.680173,3749 Carpenter Rd.,ypsilanti,MI,48197,Eastern Standard Time,GMT-05:00,America/Detroit,08:00,21:00,08:00,21:00,08:00,21:00,08:00,21:00,08:00,21:00,08:00,21:00,08:00,21:00
11378,11966-104629,US,CO,42.252215,-83.669009,4585 Washtenaw Ave|Glencoe Crossing Shopping Center,ann arbor,MI,481081278,Eastern Standard Time,GMT-05:00,America/Detroit,05:30,21:00,05:30,21:00,05:30,21:00,05:30,21:00,05:30,21:00,06:00,21:00,06:00,21:00
11379,2342-93979,US,CO,42.255688,-83.68804,3601  Washtenaw  Ave.|Arborland Shopping Center,ann arbor,MI,481045277,Eastern Standard Time,GMT-05:00,America/Detroit,05:30,21:00,05:30,21:00,05:30,21:00,05:30,21:00,05:30,21:00,05:30,21:00,05:30,20:00
11380,75450-68161,US,LS,42.25193,-83.627233,900 Oakwood St,ypsilanti,MI,481976229,Eastern Standard Time,GMT-05:00,America/Detroit,07:30,19:00,07:30,19:00,07:30,19:00,07:30,19:00,07:30,14:00,Closed,Closed,Closed,Closed
11381,73911-108420,US,LS,42.211772,-83.620756,2010 Whitaker Road,ypsilanti,MI,481978238,Eastern Standard Time,GMT-05:00,America/Detroit,06:00,20:00,06:00,20:00,06:00,20:00,06:00,20:00,06:00,20:00,06:00,20:00,06:00,20:00
11382,72814-74188,US,LS,42.35726,-83.481494,44525 Ann Arbor Rd W,plymouth,MI,481703907,Eastern Standard Time,GMT-05:00,America/Detroit,06:00,20:00,06:00,20:00,06:00,20:00,06:00,20:00,06:00,20:00,06:00,20:00,06:00,20:00
11383,2653-63043,US,CO,42.369708,-83.469887,803 W Ann Arbor Tr.|Mayflower Center,plymouth,MI,481701601,Eastern Standard Time,GMT-05:00,America/Detroit,05:30,20:00,05:30,20:00,05:30,20:00,05:30,20:00,05:30,21:00,06:30,21:00,06:30,20:00
11384,29008-250878,US,LS,42.435359,-83.483937,425 N Center,northville,MI,48167,Eastern Standard Time,GMT-05:00,America/Detroit,07:00,20:00,07:00,20:00,07:00,20:00,07:00,20:00,07:00,20:00,07:00,20:00,07:00,20:00
11385,2398-10567,US,CO,42.432969,-83.434012,20055 Haggerty Road|North Ridge Grove Retail Center,northville,MI,481673958,Eastern Standard Time,GMT-05:00,America/Detroit,05:30,21:00,05:30,21:00,05:30,21:00,05:30,21:00,05:30,21:00,06:00,21:00,06:00,21:00
11386,52043-279286,US,LS,42.434549,-83.431074,20100 Haggerty Rd,livonia,MI,48152,Eastern Standard Time,GMT-05:00,America/Detroit,08:00,21:00,08:00,21:00,08:00,21:00,08:00,21:00,08:00,21:00,08:00,21:00,08:00,21:00
11387,2278-1571,US,CO,42.493875,-83.47684,27795-B Novi Road|Space F-102|West Oaks II,novi,MI,483773462,Eastern Standard Time,GMT-05:00,America/Detroit,06:00,21:00,06:00,21:00,06:00,21:00,06:00,21:00,06:00,21:00,06:00,21:00,06:00,21:00
11388,75470-106739,US,LS,42.491963,-83.471092,27550 Novi Road,novi,MI,483773418,Eastern Standard Time,GMT-05:00,America/Detroit,11:00,18:00,11:00,18:00,11:00,18:00,11:00,18:00,11:00,19:00,11:00,19:00,11:00,18:00
11389,224-119704,US,CO,42.0865,-87.700335,1515 North Sheridan|Building 4,wilmette,IL,600911822,Central Standard Time,GMT-06:00,America/Chicago,05:00,20:00,05:00,20:00,05:00,20:00,05:00,20:00,05:00,20:00,05:00,20:00,05:00,20:00
11390,10453-101024,US,CO,42.077499,-87.71025,739 Green Bay Road,wilmette,IL,600912518,Central Standard Time,GMT-06:00,America/Chicago,05:00,19:30,05:00,19:30,05:00,19:30,05:00,19:30,05:00,19:30,05:00,19:30,05:00,19:30
11391,255-1470,US,CO,42.064215,-87.702686,2114 Central St,evanston,IL,602015812,Central Standard Time,GMT-06:00,America/Chicago,Null,Null,Null,Null,Null,Null,Null,Null,Null,Null,Null,Null,Null,Null
11392,8667-86920,US,CO,42.064302,-87.726825,3330 Central St.|Suite #1,evanston,IL,602011108,Central Standard Time,GMT-06:00,America/Chicago,05:00,20:00,05:00,20:00,05:00,20:00,05:00,20:00,05:00,20:00,05:00,20:00,05:00,20:00
11393,275-1487,US,CO,42.106926,-87.735344,566 Chestnut St|Space 3-4,winnetka,IL,600932228,Central Standard Time,GMT-06:00,America/Chicago,04:30,18:00,04:30,18:00,04:30,18:00,04:30,18:00,04:30,18:00,04:30,18:00,04:30,18:00
11394,75418-102336,US,LS,42.053318,-87.67289,1999 S Campus Dr,evanston,IL,602082500,Central Standard Time,GMT-06:00,America/Chicago,08:30,22:00,08:30,22:00,08:30,22:00,08:30,22:00,08:30,21:00,08:30,21:00,10:00,22:00
11395,243-189444,US,CO,42.049658,-87.682029,1734 Sherman Avenue.,evanston,IL,602013713,Central Standard Time,GMT-06:00,America/Chicago,05:30,22:00,05:30,22:00,05:30,22:00,05:30,22:00,05:30,22:00,05:30,22:00,05:30,21:00
11396,2246-397,US,CO,42.081184,-87.75657,3232 LAKE AVE.|#8|Edens Plaza Shopping Center,wilmette,IL,600911073,Central Standard Time,GMT-06:00,America/Chicago,05:00,19:00,05:00,19:00,05:00,19:00,05:00,19:00,05:00,19:00,05:00,18:30,05:00,18:30
11397,2260-1298,US,CO,42.060717,-87.749031,4999 Old Orchard Center|Space E-46,skokie,IL,60077,Central Standard Time,GMT-06:00,America/Chicago,07:00,20:30,09:00,17:00,09:00,17:00,09:00,16:30,09:00,19:30,09:00,19:30,09:00,18:30
11398,23091-227464,US,CO,42.04136,-87.699549,1901 Dempster St,evanston,IL,602014069,Central Standard Time,GMT-06:00,America/Chicago,05:00,19:00,05:00,19:00,05:00,19:00,05:00,19:00,05:00,19:00,05:00,18:00,05:00,18:00
11399,10452-101025,US,CO,42.079803,-87.762642,3520 Lake Ave.,wilmette,IL,600911064,Central Standard Time,GMT-06:00,America/Chicago,05:00,19:00,05:00,19:00,05:00,19:00,05:00,19:00,05:00,19:00,05:30,19:00,05:30,19:00
11400,11497-105610,US,CO,42.041004,-87.730973,4116 Dempster St,skokie,IL,600762101,Central Standard Time,GMT-06:00,America/Chicago,05:30,21:00,05:30,21:00,05:30,21:00,05:30,21:00,05:30,21:00,06:00,21:00,06:00,21:00
11401,256-1483,US,CO,42.101759,-87.770338,1801 Willow Rd,northfield,IL,600933469,Central Standard Time,GMT-06:00,America/Chicago,05:00,18:00,05:00,18:00,05:00,18:00,05:00,18:00,05:00,18:00,05:00,18:00,07:00,14:00
11402,2444-20719,US,CO,42.034122,-87.678856,519 Main Street,evanston,IL,602021814,Central Standard Time,GMT-06:00,America/Chicago,06:00,14:30,06:00,14:30,06:00,14:30,06:00,14:30,06:00,14:30,06:00,13:00,06:00,13:00
11403,2711-83397,US,CO,42.040497,-87.751886,5001 W. Dempster St.,skokie,IL,600771842,Central Standard Time,GMT-06:00,America/Chicago,05:00,21:00,Closed,Closed,Closed,Closed,Closed,Closed,Closed,Closed,Closed,Closed,Closed,Closed
11404,210-1401,US,CO,42.134377,-87.759558,347 Park Ave,glencoe,IL,600221525,Central Standard Time,GMT-06:00,America/Chicago,05:00,17:00,05:00,17:00,05:00,19:00,05:00,19:00,05:00,19:00,05:00,19:00,06:00,19:00
11405,76373-96998,US,LS,42.019454,-87.685042,2209 W Howard St,evanston,IL,602023636,Central Standard Time,GMT-06:00,America/Chicago,08:00,20:00,08:00,20:00,08:00,20:00,08:00,20:00,08:00,20:00,08:00,20:00,08:00,20:00
11406,23952-232509,US,LS,42.018383,-87.673878,1763 W Howard,chicago,IL,60626,Central Standard Time,GMT-06:00,America/Chicago,06:00,17:00,06:00,17:00,06:00,17:00,06:00,17:00,06:00,17:00,06:00,17:00,06:00,17:00
11407,2239-950,US,CO,42.080407,-87.798095,1401-C Waukegan Road|Glen Oak Plaza,glenview,IL,600252160,Central Standard Time,GMT-06:00,America/Chicago,05:00,20:00,05:00,20:00,05:00,18:00,07:00,14:00,05:00,20:00,07:00,14:00,05:30,19:30
11408,9559-233124,US,CO,42.013058,-87.71209,3312 W Touhy Ave,skokie,IL,600767200,Central Standard Time,GMT-06:00,America/Chicago,06:00,17:00,05:30,15:00,05:30,18:00,05:30,18:00,05:30,18:00,05:30,18:00,06:00,18:00
11409,23955-230846,US,LS,42.100552,-87.798661,2502 N Waukegan Rd,glenview,IL,60025,Central Standard Time,GMT-06:00,America/Chicago,06:00,17:00,06:00,17:00,06:00,17:00,06:00,17:00,06:00,17:00,06:00,17:00,06:00,17:00
11410,2222-242608,US,CO,42.012174,-87.736537,4320 W Touhy Ave,lincolnwood,IL,60712,Central Standard Time,GMT-06:00,America/Chicago,04:30,20:00,04:30,20:00,04:30,20:00,04:30,20:00,04:30,20:00,04:30,20:00,04:30,20:00
11411,2237-267147,US,CO,42.04047,-87.797211,6801 Dempster Street,morton grove,IL,60053,Central Standard Time,GMT-06:00,America/Chicago,04:30,21:00,05:00,21:00,05:00,21:00,05:00,21:00,05:00,21:00,05:00,21:00,05:00,21:00
11412,29492-253827,US,CO,42.011603,-87.757908,5211 W Touhy,skokie,IL,600773245,Central Standard Time,GMT-06:00,America/Chicago,05:30,21:00,05:30,18:00,05:30,18:00,05:30,18:00,05:30,18:00,05:30,21:00,05:30,21:00
11413,2428-18819,US,CO,42.004658,-87.661197,6738 North Sheridan Avenue,chicago,IL,606264405,Central Standard Time,GMT-06:00,America/Chicago,06:00,19:30,06:00,19:30,06:00,19:30,06:00,19:30,06:00,19:30,06:00,19:30,06:00,19:30
11414,72197-19919,US,LS,42.07929,-87.817145,1340 Patriot Blvd.,glenview,IL,600267777,Central Standard Time,GMT-06:00,America/Chicago,06:00,17:00,06:00,17:00,06:00,17:00,06:00,17:00,06:00,17:00,06:00,17:00,06:00,17:00
11415,56952-290369,US,LS,41.999428,-87.660708,6418 N. Sheridan Rd.,chicago,IL,60626,Central Standard Time,GMT-06:00,America/Chicago,07:00,20:00,07:00,20:00,07:00,20:00,07:00,20:00,07:00,20:00,08:00,20:00,07:00,20:00
11416,2683-72626,US,CO,42.089342,-87.824297,1895 Tower Drive|The Glen,glenview,IL,600267783,Central Standard Time,GMT-06:00,America/Chicago,05:30,21:00,05:30,21:00,05:30,21:00,05:30,21:00,05:30,21:00,05:30,21:00,05:30,21:00
11417,19283-182806,US,CO,41.997898,-87.660865,6350 North Broadway,chicago,IL,606601402,Central Standard Time,GMT-06:00,America/Chicago,05:00,15:00,05:00,15:00,05:00,15:00,05:00,15:00,05:00,15:00,05:00,15:00,05:00,15:00
11418,2929-85123,US,CO,41.99287,-87.711001,6075 N. Lincoln Ave.,chicago,IL,606592435,Central Standard Time,GMT-06:00,America/Chicago,05:30,17:00,05:30,17:00,05:30,17:00,05:30,17:00,05:30,17:00,06:00,17:00,06:00,17:00
11419,17743-168006,US,CO,41.992576,-87.690159,6108 North Western Avenue,chicago,IL,606592816,Central Standard Time,GMT-06:00,America/Chicago,05:00,21:00,05:00,21:00,05:00,21:00,05:00,21:00,05:00,21:00,06:00,21:00,06:00,21:00
11420,76220-90361,US,LS,42.012697,-87.780421,6150 W Touhy Ave,niles,IL,607144621,Central Standard Time,GMT-06:00,America/Chicago,08:00,20:00,08:00,20:00,08:00,20:00,08:00,20:00,08:00,20:00,08:00,20:00,08:00,20:00
11421,76604-95684,US,LS,41.990918,-87.683373,2112 W Peterson Ave,chicago,IL,606594277,Central Standard Time,GMT-06:00,America/Chicago,08:00,20:00,08:00,20:00,08:00,20:00,08:00,20:00,08:00,20:00,08:00,20:00,08:00,20:00
11422,47361-257925,US,CO,41.989935,-87.670941,5964 N. Ridge Avenue,chicago,IL,606603211,Central Standard Time,GMT-06:00,America/Chicago,05:00,20:00,05:00,20:00,05:00,20:00,05:00,20:00,05:00,20:00,05:30,20:00,05:30,20:00
11423,2252-1223,US,CO,41.989859,-87.733873,4159 W. Peterson,chicago,IL,606466002,Central Standard Time,GMT-06:00,America/Chicago,05:30,20:00,05:30,20:00,05:30,20:00,05:30,20:00,05:30,20:00,06:00,20:00,06:00,20:00
11424,15752-162106,US,CO,42.011772,-87.800564,7161 North Milwaukee Avenue,niles,IL,607144424,Central Standard Time,GMT-06:00,America/Chicago,05:00,21:00,05:00,21:00,05:00,21:00,05:00,21:00,05:00,21:00,05:00,21:00,05:00,21:00
11425,2623-62739,US,CO,42.053101,-87.836073,9483 N. Milwaukee Ave.|Four Flaggs Shopping Center,niles,IL,607141209,Central Standard Time,GMT-06:00,America/Chicago,05:00,21:00,05:00,21:00,05:00,21:00,05:00,21:00,05:00,21:00,05:00,21:00,06:00,21:00
11426,2445-20980,US,CO,41.983818,-87.657811,1070 W. Bryn Mawr Ave.,chicago,IL,606604630,Central Standard Time,GMT-06:00,America/Chicago,05:00,19:00,05:00,19:00,05:00,19:00,05:00,19:00,05:00,19:00,06:00,19:00,06:00,19:00
11427,60652-291125,US,LS,42.052345,-87.839687,239 Golf Mill Ctr,niles,IL,607141237,Central Standard Time,GMT-06:00,America/Chicago,08:00,20:00,08:00,20:00,08:00,20:00,08:00,20:00,08:00,20:00,08:00,20:00,08:00,20:00
11428,13522-106970,US,CO,41.975849,-87.710122,3232 W Foster Avenue,chicago,IL,606254828,Central Standard Time,GMT-06:00,America/Chicago,06:00,20:00,06:00,20:00,06:00,20:00,06:00,20:00,06:00,20:00,06:00,20:00,06:00,20:00
11429,2310-1856,US,CO,41.978141,-87.668545,5300 N Clark Street,chicago,IL,606402114,Central Standard Time,GMT-06:00,America/Chicago,05:30,20:00,05:30,20:00,05:30,21:00,05:30,21:00,05:30,21:00,06:00,21:00,06:00,20:00
11430,62850-297367,US,CO,41.977626,-87.660421,5244 N Broadway St,chicago,IL,60640,Central Standard Time,GMT-06:00,America/Chicago,05:00,20:00,05:00,20:00,05:00,20:00,05:00,20:00,05:00,20:00,05:00,20:00,05:00,20:00
11431,63032-291017,US,LS,41.975001,-87.744185,4631 W Foster Avenue,chicago,IL,60630,Central Standard Time,GMT-06:00,America/Chicago,08:00,22:00,08:00,22:00,08:00,22:00,08:00,22:00,08:00,22:00,08:00,22:00,07:00,21:00
11432,58413-285623,US,CO,41.974962,-87.745392,4715 W. Foster Avenue,chicago,IL,60630,Central Standard Time,GMT-06:00,America/Chicago,05:00,21:00,05:00,21:00,05:00,21:00,05:00,21:00,05:00,22:00,05:30,22:00,05:30,21:00
11433,53771-279230,US,LS,41.969108,-87.675085,1800 W Lawrence Ave,chicago,IL,60640,Central Standard Time,GMT-06:00,America/Chicago,06:00,19:00,06:00,19:00,06:00,19:00,06:00,19:00,06:00,19:00,06:00,19:00,06:00,19:00
11434,13439-107188,US,CO,41.968967,-87.729033,4830 N. Pulaski Rd.|Suite A,chicago,IL,606302844,Central Standard Time,GMT-06:00,America/Chicago,05:00,21:00,05:00,21:00,05:00,21:00,05:00,21:00,05:00,21:00,05:00,21:00,05:00,21:00
11435,16249-162125,US,CO,38.444692,-90.374671,3884 State Route 141,arnold,MO,630101404,Central Standard Time,GMT-06:00,America/Chicago,05:00,21:00,05:00,21:00,05:00,21:00,05:00,21:00,05:00,21:00,05:00,21:00,05:30,21:00
11436,18830-191525,US,CO,29.95302,-90.069416,700 Canal St.,new orleans,LA,70119,Central Standard Time,GMT-06:00,America/Chicago,06:00,16:00,06:00,16:00,06:00,16:00,06:00,16:00,06:00,16:00,06:00,16:00,06:00,16:00
11437,27890-247967,US,CO,29.949754,-90.069883,601 Poydras Street,new orleans,LA,701306029,Central Standard Time,GMT-06:00,America/Chicago,05:00,12:30,05:00,12:30,05:00,12:30,05:00,12:30,05:00,12:30,05:00,12:30,05:00,12:30
11438,72117-3469,US,LS,29.952028,-90.067907,500 Canal Street,new orleans,LA,701302306,Central Standard Time,GMT-06:00,America/Chicago,06:00,13:00,06:00,13:00,06:00,13:00,06:00,13:00,06:00,13:00,06:00,13:00,06:00,13:00
11439,75209-87726,US,LS,29.950072,-90.065403,8 Canal St,new orleans,LA,701301601,Central Standard Time,GMT-06:00,America/Chicago,07:00,12:00,07:00,12:00,07:00,12:00,07:00,12:00,06:00,18:00,06:00,18:00,06:00,18:00
11440,6314-6908,US,CO,29.926249,-90.082724,2801 Magazine Street,new orleans,LA,701152261,Central Standard Time,GMT-06:00,America/Chicago,05:30,14:00,05:30,14:00,05:30,14:00,05:30,14:00,05:30,14:00,05:30,14:00,05:30,14:00
11441,75644-78743,US,LS,29.943716,-90.064953,800 Convention Center Blvd,new orleans,LA,701301753,Central Standard Time,GMT-06:00,America/Chicago,Closed,Closed,Closed,Closed,07:00,13:00,07:00,13:00,07:00,13:00,07:00,13:00,07:00,13:00
11442,9563-95917,US,CO,29.880042,-90.098249,1677 Barataria Blvd.|B,marrero,LA,700724308,Central Standard Time,GMT-06:00,America/Chicago,05:00,22:00,05:00,22:00,05:00,18:30,05:00,22:00,05:00,22:00,05:00,22:00,05:30,21:30
11443,6434-288738,US,CO,29.889942,-90.058214,806 Manhattan Boulevard,harvey,LA,700584604,Central Standard Time,GMT-06:00,America/Chicago,05:00,21:00,05:00,21:00,05:00,19:00,05:00,21:00,05:00,21:00,05:00,21:00,05:00,21:00
11444,56915-289425,US,LS,29.890215,-90.053655,1731 Manhattan Blvd,harvey,LA,700583409,Central Standard Time,GMT-06:00,America/Chicago,08:00,21:00,08:00,21:00,08:00,21:00,08:00,21:00,08:00,21:00,08:00,21:00,08:00,21:00
11445,50827-274404,US,CO,29.920136,-90.014796,3400 Holiday Drive,new orleans,LA,701148227,Central Standard Time,GMT-06:00,America/Chicago,05:30,20:00,05:30,14:00,05:30,14:00,05:30,14:00,05:30,14:00,05:30,14:00,06:00,14:00
11446,13713-107625,US,CO,29.88911,-90.030764,1199 Terry Parkway,gretna,LA,700565207,Central Standard Time,GMT-06:00,America/Chicago,05:00,22:00,05:00,22:00,05:00,18:00,05:00,22:00,05:00,22:30,05:00,22:30,05:00,22:00
11447,22719-221004,US,CO,30.271789,-89.759903,55 Town Center Parkway,slidell,LA,704588086,Central Standard Time,GMT-06:00,America/Chicago,05:00,20:00,05:00,20:00,05:00,18:00,05:00,20:00,05:00,20:00,05:00,20:00,05:00,20:00
11448,10961-102868,US,CO,30.284038,-89.748538,798 E I-10 Service Road,slidell,LA,704615502,Central Standard Time,GMT-06:00,America/Chicago,04:30,20:00,04:30,20:00,04:30,18:00,04:30,20:00,04:30,20:00,05:00,20:00,05:00,20:00
11449,9298-95916,US,CO,29.612362,-90.756316,1731 Martin Luther King Blvd.|Magnolia Square,houma,LA,703602896,Central Standard Time,GMT-06:00,America/Chicago,05:00,19:00,05:00,19:00,05:00,19:00,05:00,19:00,05:00,19:00,05:00,19:00,05:00,19:00
11450,72859-83228,US,LS,39.764491,-105.140158,3400 Yongfield,wheat ridge,CO,800335245,Mountain Standard Time,GMT-07:00,America/Denver,06:00,20:00,06:00,20:00,06:00,20:00,06:00,20:00,06:00,20:00,06:00,20:00,06:00,20:00
11451,251-229944,US,CO,39.762168,-105.142073,3210 Youngfield Street,wheat ridge,CO,800335243,Mountain Standard Time,GMT-07:00,America/Denver,05:00,21:00,05:00,21:00,05:00,21:00,05:00,21:00,05:00,21:00,05:00,21:00,05:00,21:00
11452,73931-102079,US,LS,39.810849,-105.172024,15200 West 64th Ave,arvada,CO,800077510,Mountain Standard Time,GMT-07:00,America/Denver,06:00,19:00,06:00,19:00,06:00,19:00,06:00,19:00,06:00,19:00,06:00,19:00,06:00,19:00
11453,76512-99423,US,LS,39.840113,-105.084964,7899 Wadsworth Blvd,arvada,CO,800032107,Mountain Standard Time,GMT-07:00,America/Denver,08:00,21:00,08:00,21:00,08:00,21:00,08:00,21:00,08:00,21:00,08:00,21:00,08:00,20:00
11454,72690-76606,US,LS,39.73385,-105.16048,14500 W Colfax Ave|Unit B1,lakewood,CO,804013203,Mountain Standard Time,GMT-07:00,America/Denver,07:00,21:00,07:00,21:00,07:00,21:00,07:00,21:00,07:00,21:00,07:00,21:00,07:00,21:00
11455,10863-103229,US,CO,39.713787,-105.132948,150 South Union Boulevard,lakewood,CO,802282235,Mountain Standard Time,GMT-07:00,America/Denver,05:00,19:00,05:00,19:00,05:00,19:00,05:00,19:00,05:00,19:00,06:00,19:00,06:00,19:00
11456,70077-138824,US,LS,39.739152,-105.192751,17171 South Golden Road,golden,CO,804017334,Mountain Standard Time,GMT-07:00,America/Denver,06:00,20:00,06:00,20:00,06:00,20:00,06:00,20:00,06:00,20:00,06:00,20:00,06:00,20:00
11457,79344-96655,US,LS,39.709609,-105.085522,7984 W Alameda Ave,lakewood,CO,802263025,Mountain Standard Time,GMT-07:00,America/Denver,06:00,20:00,06:00,20:00,06:00,20:00,06:00,20:00,06:00,20:00,06:00,20:00,06:00,20:00
11458,25028-177246,US,LS,39.708498,-105.137276,12043 W Alameda Pkwy,lakewood,CO,802282701,Mountain Standard Time,GMT-07:00,America/Denver,06:00,20:00,06:00,20:00,06:00,20:00,06:00,20:00,06:00,20:00,06:00,20:00,06:00,20:00
11459,22818-220809,US,CO,39.738819,-105.196284,17224 So. Golden Rd,golden,CO,804012606,Mountain Standard Time,GMT-07:00,America/Denver,06:00,17:00,06:00,17:00,06:00,17:00,06:00,17:00,06:00,17:00,07:00,17:00,07:00,17:00
11460,52452-281911,US,CO,39.857328,-105.164949,8830 Indiana Street,arvada,CO,80007,Mountain Standard Time,GMT-07:00,America/Denver,05:00,20:00,05:00,20:00,05:00,20:00,05:00,20:00,05:00,20:00,05:30,20:00,05:30,20:00
11461,15145-156124,US,LS,39.70807,-105.079032,456 S Vance St,lakewood,CO,802263305,Mountain Standard Time,GMT-07:00,America/Denver,08:00,21:00,08:00,21:00,08:00,21:00,08:00,21:00,08:00,21:00,08:00,21:00,08:00,21:00
11462,2825-209726,US,CO,39.7042,-105.137999,12408 W Alameda Parkway,lakewood,CO,802282807,Mountain Standard Time,GMT-07:00,America/Denver,05:00,21:00,05:00,21:00,05:00,21:00,05:00,21:00,05:00,21:00,05:30,20:30,05:30,20:30
11463,55966-267884,US,LS,39.861416,-105.167691,14967 Candelas Parkway,arvada,CO,80007,Mountain Standard Time,GMT-07:00,America/Denver,06:00,20:00,06:00,20:00,06:00,20:00,06:00,20:00,06:00,20:00,06:00,20:00,06:00,20:00
11464,74355-85884,US,LS,39.7518,-105.215403,1701 Jackson St,golden,CO,804011925,Mountain Standard Time,GMT-07:00,America/Denver,06:00,19:00,06:00,19:00,06:00,19:00,06:00,19:00,06:00,19:00,06:00,19:00,06:00,19:00
11465,6425-49679,US,CO,39.754605,-105.22029,1301 Washington Avenue|Unit A|TBD,golden,CO,804016137,Mountain Standard Time,GMT-07:00,America/Denver,05:00,20:30,05:00,20:30,05:00,20:30,05:00,20:30,05:00,21:30,05:00,21:30,05:00,20:30
11466,74373-82283,US,LS,39.698307,-105.145655,13111 W Alameda Pkwy,lakewood,CO,802283108,Mountain Standard Time,GMT-07:00,America/Denver,06:00,18:00,06:00,18:00,06:00,18:00,06:00,18:00,06:00,18:00,06:00,18:00,06:00,18:00
11467,79569-107097,US,LS,39.695997,-104.84565,12200 E. Mississippi Ave,aurora,CO,800123454,Mountain Standard Time,GMT-07:00,America/Denver,06:00,19:00,06:00,19:00,06:00,19:00,06:00,19:00,06:00,19:00,06:00,19:00,06:00,18:30
11468,24213-180506,US,CO,39.697228,-104.826472,13881 E Mississippi Ave,aurora,CO,800123691,Mountain Standard Time,GMT-07:00,America/Denver,04:30,22:00,04:30,22:00,04:30,22:00,04:30,22:00,04:30,22:00,04:30,22:00,04:30,21:00
11469,11246-103076,US,CO,39.711674,-104.862719,10761 E Alameda,aurora,CO,800121035,Mountain Standard Time,GMT-07:00,America/Denver,04:30,22:00,04:30,22:00,04:30,22:00,04:30,22:00,04:30,22:00,04:30,22:00,04:30,22:00
11470,10856-101379,US,CO,39.694216,-104.790464,1240 S Buckely Rd,aurora,CO,800174150,Mountain Standard Time,GMT-07:00,America/Denver,04:30,22:00,04:30,22:00,04:30,22:00,04:30,22:00,04:30,22:00,04:30,22:00,04:30,22:00
11471,13888-108514,US,CO,42.270704,-88.97085,7474 East State Street,rockford,IL,611082644,Central Standard Time,GMT-06:00,America/Chicago,04:30,20:00,04:30,20:00,04:30,20:00,04:30,20:00,04:30,20:00,04:30,20:00,07:00,19:00
11472,2757-89241,US,CO,42.266713,-88.994881,6239 E. State Street,rockford,IL,611082514,Central Standard Time,GMT-06:00,America/Chicago,05:00,20:00,05:00,20:00,05:00,20:00,05:00,20:00,05:00,20:00,05:00,19:00,05:00,19:00
11473,10368-100752,US,CO,42.305028,-88.978663,3001 North Perryville Road,rockford,IL,611148016,Central Standard Time,GMT-06:00,America/Chicago,05:00,20:00,05:00,20:00,05:00,20:00,05:00,20:00,05:00,20:00,05:00,20:00,05:00,20:00
11474,19828-200204,US,CO,42.23928,-89.028627,2542 S. Alpine|108,rockford,IL,611087813,Central Standard Time,GMT-06:00,America/Chicago,03:30,22:00,03:30,22:00,03:30,22:00,03:30,22:00,03:30,23:00,03:30,22:30,03:30,21:30
11475,48179-261876,US,CO,42.317765,-89.035015,1521 E Riverside Blvd|Suite 1,loves park,IL,611114769,Central Standard Time,GMT-06:00,America/Chicago,04:30,21:00,04:30,21:00,04:30,21:00,04:30,21:00,04:30,21:00,05:00,21:00,05:00,21:00
11476,13243-106151,US,CO,42.238157,-88.819959,1922 Gateway Center Dr,belvidere,IL,610089303,Central Standard Time,GMT-06:00,America/Chicago,04:00,21:30,04:00,21:30,04:00,21:30,04:00,21:30,04:00,21:30,04:00,21:30,05:30,21:30
11477,50226-272272,US,LS,42.014013,-88.678179,220 W Peace Road,sycamore,IL,60178,Central Standard Time,GMT-06:00,America/Chicago,06:00,20:00,06:00,20:00,06:00,20:00,06:00,20:00,06:00,20:00,06:00,20:00,06:00,20:00
11478,62072-296436,US,LS,41.986128,-88.710427,541 Puri Parkway,sycamore,IL,60178,Central Standard Time,GMT-06:00,America/Chicago,07:00,19:00,07:00,19:00,07:00,19:00,07:00,19:00,07:00,19:00,07:00,19:00,07:00,19:00
11479,9705-95477,US,CO,41.956016,-88.722696,2577 Sycamore Road,dekalb,IL,601152051,Central Standard Time,GMT-06:00,America/Chicago,05:00,22:00,05:00,22:00,05:00,22:00,05:00,22:00,05:00,22:00,05:00,22:00,05:00,22:00
11480,5102-144970,US,LS,41.95196,-88.72609,2555 Sycamore Rd,dekalb,IL,601152051,Central Standard Time,GMT-06:00,America/Chicago,08:00,20:00,08:00,20:00,08:00,20:00,08:00,20:00,08:00,20:00,08:00,20:00,08:00,20:00
11481,59484-289032,US,LS,41.935549,-88.766231,340 Carroll Ave,dekalb,IL,60115,Central Standard Time,GMT-06:00,America/Chicago,07:30,21:00,07:30,21:00,07:30,21:00,07:30,21:00,07:30,21:00,09:00,16:00,11:00,18:00
11482,10826-102732,US,CO,41.931744,-88.77219,1015 W. Lincoln Hwy,dekalb,IL,601153027,Central Standard Time,GMT-06:00,America/Chicago,05:30,21:00,05:30,21:00,05:30,21:00,05:30,21:00,05:30,21:00,05:30,21:00,05:30,21:00
11483,2426-16174,US,CO,42.314193,-88.447937,129 Van Buren Street|Unit B,woodstock,IL,600983249,Central Standard Time,GMT-06:00,America/Chicago,05:00,20:00,05:00,20:00,05:00,20:00,05:00,20:00,05:00,20:00,05:00,20:00,06:00,20:00
11484,54175-285676,US,CO,42.292133,-88.421674,11525 Route 14,woodstock,IL,600987227,Central Standard Time,GMT-06:00,America/Chicago,05:00,21:00,05:00,21:00,05:00,21:00,05:00,21:00,05:00,22:00,05:00,22:00,06:00,21:00
11485,18566-178607,US,CO,42.151703,-88.433915,12210 Princeton Drive,huntley,IL,601427906,Central Standard Time,GMT-06:00,America/Chicago,05:00,21:00,05:00,21:00,05:00,21:00,05:00,21:00,05:00,21:00,05:00,21:00,05:00,21:00
11486,57546-291304,US,CO,42.184568,-88.421387,9900 Route 47,huntley,IL,60142,Central Standard Time,GMT-06:00,America/Chicago,05:00,21:00,05:00,21:00,05:00,21:00,05:00,21:00,05:00,21:00,05:00,21:00,06:00,20:00
11487,50203-271148,US,LS,42.136411,-88.42924,13200 VILLAGE GREEN DR,huntley,IL,601428039,Central Standard Time,GMT-06:00,America/Chicago,06:00,19:00,06:00,19:00,06:00,19:00,06:00,19:00,06:00,19:00,06:00,19:00,06:00,19:00
11488,2649-63140,US,CO,42.180639,-88.334812,343 N. Randall Rd.|Suite A|The Shops on Randall Rd.,lake in the hills,IL,601565961,Central Standard Time,GMT-06:00,America/Chicago,05:00,21:00,05:00,21:00,05:00,21:00,05:00,21:00,05:00,21:00,05:00,21:00,05:00,21:00
11489,55002-286453,US,LS,42.225363,-88.324072,105 Northwest Hwy,crystal lake,IL,60014,Central Standard Time,GMT-06:00,America/Chicago,06:00,19:00,06:00,19:00,06:00,19:00,06:00,19:00,06:00,19:00,06:00,19:00,06:00,19:00
11490,76107-79323,US,LS,42.166172,-88.33549,750 Randall Rd,algonquin,IL,60102,Central Standard Time,GMT-06:00,America/Chicago,07:00,21:00,07:00,21:00,07:00,21:00,07:00,21:00,07:00,21:00,07:00,21:00,07:00,21:00
11491,18024-182807,US,CO,42.162142,-88.336273,790 S. Randall Road|Suite 1,algonquin,IL,601025941,Central Standard Time,GMT-06:00,America/Chicago,05:00,21:00,05:00,21:00,05:00,21:00,05:00,21:00,05:00,21:00,05:00,21:00,05:00,20:00
11492,2556-42160,US,CO,42.242347,-88.318606,40 North Williams Street|Suite A|Brink Street Market,crystal lake,IL,600144472,Central Standard Time,GMT-06:00,America/Chicago,05:00,20:00,05:00,20:00,05:00,20:00,05:00,20:00,05:00,20:00,05:30,20:00,06:00,20:00
11493,26160-237118,US,CO,42.28077,-89.630863,780 W South Street,freeport,IL,610326840,Central Standard Time,GMT-06:00,America/Chicago,04:30,21:00,04:30,21:00,04:30,21:00,04:30,21:00,04:30,21:00,05:00,21:00,05:00,20:00
11494,17358-162104,US,CO,42.226486,-88.312628,6000 Northwest Hwy|Suite 13J,crystal lake,IL,600148062,Central Standard Time,GMT-06:00,America/Chicago,05:00,21:00,05:00,21:00,05:00,21:00,05:00,21:00,05:00,22:00,05:00,22:00,05:00,21:00
11495,60653-291221,US,LS,42.22867,-88.305613,5580 Northwest Hwy,crystal lake,IL,600148016,Central Standard Time,GMT-06:00,America/Chicago,09:00,20:00,09:00,20:00,09:00,20:00,09:00,20:00,09:00,20:00,09:00,20:00,09:00,20:00
11496,10239-100045,US,CO,42.091811,-88.336114,2480 N. Randall Rd.,elgin,IL,601238032,Central Standard Time,GMT-06:00,America/Chicago,04:00,21:00,04:00,21:00,04:00,21:00,04:00,21:00,04:00,21:00,04:30,21:00,04:30,21:00
11497,2338-3350,US,CO,42.592063,-88.433282,685 Main Street,lake geneva,WI,531471907,Central Standard Time,GMT-06:00,America/Chicago,05:30,20:00,05:30,20:00,05:30,17:00,05:30,20:00,05:30,20:00,05:30,20:00,05:30,20:00
11498,11490-103873,US,CO,42.210421,-88.285705,1125 S. Route 31|Suite A,crystal lake,IL,600148215,Central Standard Time,GMT-06:00,America/Chicago,05:00,21:00,05:00,21:00,05:00,21:00,05:00,21:00,05:00,21:00,05:00,21:00,05:30,20:00
11499,48178-261877,US,CO,42.591773,-88.413552,281 N Edwards Boulevard|Ste A,lake geneva,WI,531475407,Central Standard Time,GMT-06:00,America/Chicago,05:30,21:00,05:30,21:00,05:30,21:00,05:30,21:00,05:30,21:00,05:30,21:00,05:30,21:00
11500,76846-111404,US,LS,42.59869,-88.413433,660 N Edwards Blvd,lake geneva,WI,531474595,Central Standard Time,GMT-06:00,America/Chicago,08:00,21:00,08:00,21:00,08:00,21:00,08:00,21:00,08:00,21:00,08:00,21:00,08:00,20:00
11501,2626-63429,US,CO,42.160144,-88.273154,1532 E. Algonquin Road|Floor 1|Ryan Place,algonquin,IL,601024519,Central Standard Time,GMT-06:00,America/Chicago,04:30,20:00,04:30,20:00,04:30,20:00,04:30,20:00,04:30,20:00,05:00,20:00,05:00,20:00
11502,2826-87462,US,CO,42.099801,-88.286494,203 N. 8th Street,west dundee,IL,601181214,Central Standard Time,GMT-06:00,America/Chicago,05:00,21:00,05:00,21:00,05:00,21:00,05:00,21:00,05:00,21:00,05:00,21:00,05:00,20:00
11503,25698-240423,US,CO,42.01099,-88.335527,821 S. Randall Road,elgin,IL,60123,Central Standard Time,GMT-06:00,America/Chicago,04:30,21:30,04:30,21:30,04:30,21:30,04:30,21:30,04:30,21:30,04:30,21:30,04:30,21:30
11504,2694-82520,US,CO,41.98652,-88.341431,338 Randall Road,south elgin,IL,601772261,Central Standard Time,GMT-06:00,America/Chicago,05:00,21:00,05:00,21:00,05:00,21:00,05:00,21:00,05:00,21:00,05:30,21:00,05:30,21:00
11505,60971-294785,US,CO,42.024879,-88.312236,310 S McLean Blvd,elgin,IL,60123,Central Standard Time,GMT-06:00,America/Chicago,05:00,21:00,05:00,21:00,05:00,21:00,05:00,21:00,05:00,21:00,05:00,21:00,06:00,20:00
11506,55261-288761,US,CO,42.119437,-88.258454,78 S. Kennedy Drive,carpentersville,IL,601102242,Central Standard Time,GMT-06:00,America/Chicago,04:30,21:00,04:30,21:00,04:30,21:00,04:30,21:00,04:30,21:00,04:30,21:00,05:00,20:00
11507,58505-292691,US,CO,41.774667,-87.975037,6160 South Cass Ave|Unit A,westmont,IL,60559,Central Standard Time,GMT-06:00,America/Chicago,05:00,21:00,05:00,21:00,05:00,21:00,05:00,21:00,05:00,21:00,05:00,21:00,05:00,21:00
11508,266-1467,US,CO,41.795972,-88.01062,5002-5006 Main St,downers grove,IL,605153659,Central Standard Time,GMT-06:00,America/Chicago,05:00,19:00,05:00,19:00,05:00,19:00,05:00,19:00,05:00,20:30,05:30,20:30,06:00,19:00
11509,19854-202424,US,CO,41.808346,-88.013906,1149 Ogden Avenue,downers grove,IL,605152808,Central Standard Time,GMT-06:00,America/Chicago,05:00,21:00,05:00,21:00,05:00,21:00,05:00,21:00,05:00,21:00,05:00,21:00,06:00,20:00
11510,64666-298679,US,LS,41.793979,-87.770321,6107 S. Archer,chicago,IL,60638,Central Standard Time,GMT-06:00,America/Chicago,06:00,21:00,06:00,21:00,06:00,21:00,06:00,21:00,06:00,21:00,06:00,21:00,06:00,21:00
11511,21379-208368,US,CO,41.834491,-88.021556,1450 Butterfield Road,downers grove,IL,605151031,Central Standard Time,GMT-06:00,America/Chicago,05:00,21:00,05:00,21:00,05:00,21:00,05:00,21:00,05:00,21:00,06:00,21:00,06:00,21:00
11512,57112-290668,US,LS,41.830675,-88.035018,2111 Butterfield Road,downers grove,IL,60515,Central Standard Time,GMT-06:00,America/Chicago,06:00,15:00,06:00,16:00,06:00,16:00,06:00,16:00,06:00,16:00,08:00,14:00,08:00,13:00
11513,19693-201565,US,CO,41.65577,-88.441578,1246 N. Bridge Street,yorkville,IL,605601115,Central Standard Time,GMT-06:00,America/Chicago,05:30,20:30,05:30,20:30,05:30,20:30,05:30,20:30,05:30,20:30,05:30,20:00,05:30,20:00
11514,76911-127264,US,LS,41.6824,-88.4722,1652 Beecher Rd,yorkville,IL,605605602,Central Standard Time,GMT-06:00,America/Chicago,07:00,20:00,07:00,20:00,07:00,20:00,07:00,20:00,07:00,20:00,07:00,20:00,07:00,20:00
11515,14840-129334,US,CO,40.761993,-73.92507,31-01 Broadway,astoria,NY,111062594,Eastern Standard Time,GMT-05:00,America/New_York,05:00,22:00,05:00,22:00,05:00,22:00,05:00,22:00,05:00,22:00,05:30,22:00,06:00,21:30
11516,50483-275106,US,CO,40.74712,-73.941812,26-14 Jackson Ave.,long island city,NY,111012904,Eastern Standard Time,GMT-05:00,America/New_York,06:00,19:00,06:00,19:00,06:00,19:00,06:00,19:00,06:00,19:00,06:00,19:00,06:00,19:00
11517,47753-259564,US,CO,40.750142,-73.940177,25-14 Queens Plaza South,long island city,NY,11101,Eastern Standard Time,GMT-05:00,America/New_York,06:00,19:00,06:00,19:00,06:00,19:00,06:00,19:00,06:00,19:00,06:30,19:00,06:30,19:00
11518,18858-191484,US,CO,40.712596,-73.951569,405-409 Union Avenue,brooklyn,NY,112113424,Eastern Standard Time,GMT-05:00,America/New_York,06:00,19:00,06:00,19:00,06:00,19:00,06:00,19:00,06:00,19:00,07:00,19:00,07:00,19:00
11519,53880-284307,US,CO,40.723416,-73.951443,66 Nassau Ave,brooklyn,NY,112223105,Eastern Standard Time,GMT-05:00,America/New_York,06:00,20:00,06:00,20:00,06:00,20:00,06:00,20:00,06:00,20:00,07:00,20:00,07:00,20:00
11520,57774-291902,US,CO,40.742353,-73.949095,21-02 49th Ave,long island city,NY,111014521,Eastern Standard Time,GMT-05:00,America/New_York,06:00,19:00,06:00,19:00,06:00,19:00,06:00,19:00,06:00,19:00,06:00,19:00,06:00,19:00
11521,11619-104790,US,CO,34.655591,-84.492592,60 Highland Crossing South,ellijay,GA,305402349,Eastern Standard Time,GMT-05:00,America/New_York,06:00,20:00,06:00,20:00,06:00,20:00,06:00,20:00,06:00,20:00,06:00,20:00,06:00,20:00
11522,29165-251524,US,LS,34.675887,-84.478374,100 Old Orchard Sq,east ellijay,GA,30540,Eastern Standard Time,GMT-05:00,America/New_York,06:00,21:00,06:00,21:00,06:00,21:00,06:00,21:00,06:00,21:00,06:00,21:00,06:00,21:00
11523,48565-263629,US,CO,35.004975,-85.151179,8021 E. Brainerd Rd|101,chattanooga,TN,374213206,Eastern Standard Time,GMT-05:00,America/New_York,05:00,21:00,05:00,21:00,05:00,18:30,05:00,21:00,05:00,21:30,05:00,21:00,05:30,21:00
11524,57753-291849,US,CO,34.99154,-85.201485,635 Camp Jordan Pkwy,east ridge,TN,374124250,Eastern Standard Time,GMT-05:00,America/New_York,05:00,21:00,05:00,21:00,05:00,21:00,05:00,21:00,05:00,21:00,05:00,21:00,05:00,21:00
11525,50258-272944,US,LS,35.024178,-85.155046,1816 Gunbarrel Rd,chattanooga,TN,37421,Eastern Standard Time,GMT-05:00,America/New_York,08:00,21:00,08:00,21:00,08:00,21:00,08:00,21:00,08:00,21:00,08:00,21:00,08:00,21:00
11526,73868-106710,US,LS,32.425369,-111.044954,12100 North Thorneydale Road,marana,AZ,856584755,US Mountain Standard Time,GMT-07:00,America/Phoenix,06:00,19:00,06:00,19:00,06:00,19:00,06:00,19:00,06:00,19:00,06:00,19:00,06:00,19:00
11527,20278-176064,US,LS,32.396454,-110.993952,10450 N LA Canada Dr,oro valley,AZ,857377027,US Mountain Standard Time,GMT-07:00,America/Phoenix,06:00,19:00,06:00,19:00,06:00,19:00,06:00,19:00,06:00,19:00,06:00,19:00,06:00,19:00
11528,65044-299190,US,LS,32.358172,-111.044411,8360 Thornydale,tucson,AZ,85741,US Mountain Standard Time,GMT-07:00,America/Phoenix,06:00,19:00,06:00,19:00,06:00,19:00,06:00,19:00,06:00,19:00,06:00,19:00,06:00,19:00
11529,25943-230605,US,CO,32.374348,-111.102163,6401 W. Marana Center Blvd.|Suite 806,marana,AZ,857428521,US Mountain Standard Time,GMT-07:00,America/Phoenix,06:30,20:00,06:30,20:00,06:30,20:00,06:30,20:00,06:30,21:00,06:30,21:00,06:30,19:00
11530,74414-91321,US,LS,32.426944,-110.959336,12122 N Rancho Vistoso Blvd,oro valley,AZ,857551749,US Mountain Standard Time,GMT-07:00,America/Phoenix,05:00,20:00,05:00,20:00,05:00,20:00,05:00,20:00,05:00,20:00,05:00,20:00,05:00,20:00
11531,2838-92782,US,CO,32.355421,-111.092411,5970 W. Arizona Pavilions Dr|Arizona Pavilions,tucson,AZ,857437314,US Mountain Standard Time,GMT-07:00,America/Phoenix,04:00,21:00,04:00,21:00,04:00,21:00,04:00,21:00,04:00,21:00,04:30,21:00,04:30,21:00
11532,15605-151604,US,LS,32.338897,-111.045741,3770 W Ina Rd,tucson,AZ,857412093,US Mountain Standard Time,GMT-07:00,America/Phoenix,06:00,19:00,06:00,19:00,06:00,19:00,06:00,19:00,06:00,19:00,06:00,19:00,06:00,19:00
11533,8854-95070,US,CO,32.337193,-111.049968,3951 W. Ina Road|#101,tucson,AZ,857412363,US Mountain Standard Time,GMT-07:00,America/Phoenix,04:30,21:00,04:30,21:00,04:30,21:00,04:30,21:00,04:30,21:00,04:30,21:00,04:30,21:00
11534,76402-97186,US,LS,32.336081,-111.048862,3901 W Ina Rd,tucson,AZ,857412291,US Mountain Standard Time,GMT-07:00,America/Phoenix,08:00,21:00,08:00,21:00,08:00,21:00,08:00,21:00,08:00,21:00,08:00,21:00,08:00,21:00
11535,74379-83392,US,LS,32.372705,-111.136807,9100 North Silver Bell,tucson,AZ,85653,US Mountain Standard Time,GMT-07:00,America/Phoenix,06:00,20:00,06:00,20:00,06:00,20:00,06:00,20:00,06:00,20:00,06:00,20:00,06:00,20:00
11536,13122-152324,US,LS,32.483484,-110.920381,15310 N Oracle Rd,tucson,AZ,857399426,US Mountain Standard Time,GMT-07:00,America/Phoenix,06:00,19:00,06:00,19:00,06:00,19:00,06:00,19:00,06:00,19:00,06:00,19:00,06:00,18:00
11537,13150-138191,US,LS,32.227594,-110.997209,1551 W St Marys Blvd,tucson,AZ,857453107,US Mountain Standard Time,GMT-07:00,America/Phoenix,06:00,20:00,06:00,20:00,06:00,20:00,06:00,20:00,06:00,20:00,06:00,20:00,06:00,20:00
11538,73908-102067,US,LS,32.306274,-110.845391,6900 E Sunrise,tucson,AZ,857500830,US Mountain Standard Time,GMT-07:00,America/Phoenix,06:00,19:00,06:00,19:00,06:00,19:00,06:00,19:00,06:00,19:00,06:00,19:00,06:00,18:00
11539,75733-95241,US,LS,32.215972,-111.049943,3800 W Starr Pass Blvd,tucson,AZ,857455115,US Mountain Standard Time,GMT-07:00,America/Phoenix,05:00,17:30,05:00,17:30,05:00,17:30,05:00,17:30,05:00,17:30,05:00,17:30,05:00,17:30
11540,49733-245843,US,LS,32.132103,-111.004603,Valencia & Indian Agency,tucson,AZ,85746,US Mountain Standard Time,GMT-07:00,America/Phoenix,06:00,19:00,06:00,19:00,06:00,19:00,06:00,19:00,06:00,19:00,06:00,19:00,06:00,19:00
11541,49538-267604,US,CO,32.133442,-111.003524,1765 W. Valencia Rd.,tucson,AZ,857466533,US Mountain Standard Time,GMT-07:00,America/Phoenix,04:30,22:00,04:30,22:00,04:30,22:00,04:30,22:00,04:30,22:30,05:00,22:30,05:00,22:00
11542,74922-101015,US,LS,32.133793,-111.008696,2940 W Valencia Rd,tucson,AZ,857468035,US Mountain Standard Time,GMT-07:00,America/Phoenix,06:00,20:30,06:00,20:30,06:00,20:30,06:00,20:30,06:00,20:30,06:00,20:30,06:00,20:30
11543,16501-160704,US,LS,32.130854,-111.087054,5655 W Valencia Rd,tucson,AZ,857579714,US Mountain Standard Time,GMT-07:00,America/Phoenix,06:00,22:00,06:00,22:00,06:00,22:00,06:00,00:00,06:00,00:00,06:00,00:00,06:00,22:00
11544,25206-237608,US,LS,32.161572,-110.99051,1225 W Irvington Road,tucson,AZ,85714,US Mountain Standard Time,GMT-07:00,America/Phoenix,08:00,21:00,08:00,21:00,08:00,21:00,08:00,21:00,08:00,21:00,08:00,21:00,08:00,21:00
11545,8783-93239,US,CO,32.16245,-110.990087,1209 W. Irvington Road|#150|Westpoint Crossing,tucson,AZ,857141272,US Mountain Standard Time,GMT-07:00,America/Phoenix,04:30,22:00,04:30,22:00,04:30,22:00,04:30,22:00,04:30,22:00,05:00,22:00,05:00,22:00
11546,24410-234704,US,CO,32.182912,-110.947882,1580 E. Tucson Marketplace Blvd|#100,tucson,AZ,857136540,US Mountain Standard Time,GMT-07:00,America/Phoenix,04:30,21:00,04:30,21:00,04:30,21:00,04:30,21:00,04:30,22:00,05:00,22:00,04:30,21:00
11547,13930-113465,US,CO,39.031908,-77.423964,21100 Dulles Town Circle|Dulles Town Center - kiosk,dulles,VA,201662437,Eastern Standard Time,GMT-05:00,America/New_York,10:30,16:30,10:30,16:30,10:30,16:30,10:30,16:30,10:30,16:30,10:30,16:30,10:30,16:30
11548,11313-104543,US,CO,39.038935,-77.412877,3 Pidgeon Hill Drive|Countryside Marketplace,sterling,VA,201656102,Eastern Standard Time,GMT-05:00,America/New_York,05:30,20:30,05:30,20:30,05:30,20:30,05:30,20:30,05:30,20:30,06:00,20:30,06:00,20:00
11549,76258-95153,US,LS,39.026217,-77.400451,46201 Potomac Run Plaza,sterling,VA,201646609,Eastern Standard Time,GMT-05:00,America/New_York,08:00,20:00,08:00,20:00,08:00,20:00,08:00,20:00,08:00,20:00,08:00,20:00,08:00,20:00
11550,717-1126,US,CO,39.03457,-77.398003,210-21 Southbank Street,sterling,VA,201657228,Eastern Standard Time,GMT-05:00,America/New_York,05:30,19:30,05:30,19:30,05:30,19:30,05:30,19:30,05:30,19:30,06:00,19:30,06:00,16:00
11551,29084-248386,US,LS,39.025426,-77.396002,21399 Epicerie Plaza,sterling,VA,20164,Eastern Standard Time,GMT-05:00,America/New_York,06:00,19:00,06:00,19:00,06:00,19:00,06:00,19:00,06:00,19:00,06:00,19:00,06:00,19:00
11552,74166-32179,US,LS,38.997903,-77.408804,22350 Sterling Rd,sterling,VA,201644243,Eastern Standard Time,GMT-05:00,America/New_York,06:00,20:00,06:00,20:00,06:00,20:00,06:00,20:00,06:00,20:00,06:00,20:00,06:00,20:00
11553,7387-285830,US,CO,39.016639,-77.376961,46900 Community Plaza,sterling,VA,201641800,Eastern Standard Time,GMT-05:00,America/New_York,05:00,20:00,05:00,20:00,05:00,20:00,05:00,20:00,05:00,20:00,05:30,20:00,05:30,19:30
11554,74698-67240,US,LS,38.967035,-77.376537,Elden Street & Post Drive,herndon,VA,20170,Eastern Standard Time,GMT-05:00,America/New_York,06:00,20:00,06:00,20:00,06:00,20:00,06:00,20:00,06:00,20:00,06:00,20:00,06:00,20:00
11555,710-1117,US,CO,38.979751,-77.349647,1444 North Point Village Center,reston,VA,201941190,Eastern Standard Time,GMT-05:00,America/New_York,05:00,20:30,05:00,20:30,05:00,20:30,05:00,20:30,05:00,20:30,06:00,20:30,06:00,20:30
11556,16905-166424,US,CO,38.996659,-77.287188,9863 Georgetown Pike|Great Falls Center,great falls,VA,220662617,Eastern Standard Time,GMT-05:00,America/New_York,05:30,20:00,05:30,20:00,05:30,20:00,05:30,20:00,05:30,20:00,06:00,19:00,06:00,19:00
11557,79350-98317,US,LS,39.104166,-77.291697,14104 Darnestown Rd,darnestown,MD,208743010,Eastern Standard Time,GMT-05:00,America/New_York,06:00,19:00,06:00,19:00,06:00,19:00,06:00,19:00,06:00,19:00,06:00,19:00,06:00,19:00
11558,732-976,US,CO,39.11783,-77.251501,12179 Darnestown Road,gaithersburg,MD,208782205,Eastern Standard Time,GMT-05:00,America/New_York,05:00,20:00,05:00,20:00,05:00,20:00,05:00,20:00,05:00,20:00,05:30,20:00,05:30,20:00
11559,50373-269906,US,LS,47.441298,-122.303627,SeaTac Airport,seatac,WA,981581202,Pacific Standard Time,GMT-08:00,America/Los_Angeles,04:00,16:00,04:00,16:00,04:00,16:00,04:00,16:00,04:00,16:00,04:00,16:00,04:00,16:00
11560,75667-93767,US,LS,47.441759,-122.300947,2580 S 156th St,seatac,WA,981581132,Pacific Standard Time,GMT-08:00,America/Los_Angeles,04:00,16:00,04:00,16:00,04:00,16:00,04:00,16:00,04:00,16:00,04:00,16:00,04:00,16:00
11561,50374-269905,US,LS,47.443136,-122.303018,17801 PACIFIC HWY S,seatac,WA,98158,Pacific Standard Time,GMT-08:00,America/Los_Angeles,04:00,21:00,04:00,21:00,04:00,21:00,04:00,21:00,04:00,21:00,04:00,21:00,04:00,21:00
11562,75588-76320,US,LS,47.443965,-122.30242,2580 S 156th St|Seattle-Tacoma International Airport,seatac,WA,981581132,Pacific Standard Time,GMT-08:00,America/Los_Angeles,05:00,15:00,05:00,15:00,05:00,15:00,05:00,15:00,05:00,15:00,05:00,15:00,05:00,15:00
11563,54427-286517,US,LS,47.445117,-122.301331,17801 International Dr,seatac,WA,98158,Pacific Standard Time,GMT-08:00,America/Los_Angeles,04:00,19:00,04:00,19:00,04:00,19:00,04:00,19:00,04:00,19:00,04:00,19:00,04:00,19:00
11564,50375-269904,US,LS,47.445563,-122.303686,17801 PACIFIC HWY S,seatac,WA,98158,Pacific Standard Time,GMT-08:00,America/Los_Angeles,04:00,19:00,04:00,19:00,04:00,19:00,04:00,19:00,04:00,19:00,04:00,19:00,04:00,19:00
11565,72576-108242,US,LS,47.441959,-122.335545,17847 1st Ave S,burien,WA,981481728,Pacific Standard Time,GMT-08:00,America/Los_Angeles,06:00,19:00,06:00,19:00,06:00,19:00,06:00,19:00,06:00,19:00,06:00,19:00,06:00,19:00
11566,3334-246404,US,CO,47.442529,-122.33479,17827 1st Ave S,normandy park,WA,981481728,Pacific Standard Time,GMT-08:00,America/Los_Angeles,04:30,20:00,04:30,20:00,04:30,20:00,04:30,20:00,04:30,20:00,05:00,20:00,05:00,20:00
11567,3267-1860,US,CO,47.445738,-122.260385,17480 Southcenter Parkway,tukwila,WA,981883701,Pacific Standard Time,GMT-08:00,America/Los_Angeles,06:00,20:00,07:00,18:00,07:00,18:00,07:00,18:00,07:00,19:00,07:00,21:00,07:00,20:00
11568,11665-88085,US,CO,47.440963,-122.244169,18016 71st Ave. S.|101,kent,WA,980321025,Pacific Standard Time,GMT-08:00,America/Los_Angeles,04:30,18:30,04:30,18:30,04:30,18:30,04:30,18:30,04:30,18:30,06:00,17:30,06:00,17:30
11569,74381-86200,US,LS,47.455631,-122.282064,4011 S 164th,seatac,WA,981883067,Pacific Standard Time,GMT-08:00,America/Los_Angeles,05:00,20:00,05:00,20:00,05:00,20:00,05:00,20:00,05:00,20:00,05:30,19:00,05:30,19:00
11570,3217-84200,US,CO,47.460968,-122.33352,15838 1st Avenue South,burien,WA,981481213,Pacific Standard Time,GMT-08:00,America/Los_Angeles,04:30,21:30,04:30,21:30,04:30,21:30,04:30,21:30,04:30,21:30,05:00,21:30,05:00,21:30
11571,322-98484,US,CO,47.442189,-122.197412,17901 108th Ave SE,renton,WA,980556446,Pacific Standard Time,GMT-08:00,America/Los_Angeles,Null,Null,Null,Null,Null,Null,Null,Null,Null,Null,Null,Null,Null,Null
11572,14156-112404,US,CO,33.608235,-117.827393,21155 Newport Coast Drive|Newport Coast Shopping Center,newport coast,CA,926571123,Pacific Standard Time,GMT-08:00,America/Los_Angeles,05:30,18:30,05:30,18:30,05:30,18:30,05:30,18:30,05:30,18:30,05:30,18:30,06:00,18:30
11573,74556-77464,US,LS,33.606962,-117.827616,21181 Newport Coast Dr,newport coast,CA,926571123,Pacific Standard Time,GMT-08:00,America/Los_Angeles,06:00,20:00,06:00,20:00,06:00,20:00,06:00,20:00,06:00,20:00,06:00,20:00,06:00,20:00
11574,74648-93368,US,LS,33.625955,-117.850184,2660 San Miguel Dr,newport beach,CA,926605437,Pacific Standard Time,GMT-08:00,America/Los_Angeles,06:00,19:00,06:00,19:00,06:00,19:00,06:00,19:00,06:00,19:00,06:00,19:00,06:00,19:00
11575,6654-70500,US,CO,33.570236,-117.832865,7958 Pacific Coast Highway|Crystal Cove Promenade,newport beach,CA,926572139,Pacific Standard Time,GMT-08:00,America/Los_Angeles,06:00,20:00,06:00,20:00,06:00,20:00,06:00,20:00,06:00,20:00,06:00,20:00,06:00,20:00
11576,510-453,US,CO,33.600627,-117.872708,2801 East Coast Hwy,corona del mar,CA,926252231,Pacific Standard Time,GMT-08:00,America/Los_Angeles,06:00,18:00,06:00,18:00,06:00,18:00,06:00,18:00,06:00,18:00,06:00,18:00,06:00,18:00
11577,5563-234644,US,CO,33.614912,-117.874809,137 Newport Center Drive,newport beach,CA,926606905,Pacific Standard Time,GMT-08:00,America/Los_Angeles,04:30,21:30,04:30,21:30,04:30,21:30,04:30,21:30,04:30,21:30,04:30,21:30,04:30,21:30
11578,622-345,US,CO,33.649086,-117.830814,4545 Campus Drive,irvine,CA,926122621,Pacific Standard Time,GMT-08:00,America/Los_Angeles,04:30,00:00,04:30,00:00,04:30,00:00,04:30,00:00,04:30,00:00,04:30,00:00,04:30,00:00
11579,59491-293656,US,LS,33.650245,-117.831237,4541 Campus Drive,irvine,CA,92612,Pacific Standard Time,GMT-08:00,America/Los_Angeles,05:00,20:00,05:00,20:00,05:00,20:00,05:00,20:00,05:00,20:00,05:00,20:00,05:00,20:00
11580,49362-261825,US,LS,33.649612,-117.838691,4255 Campus Dr,irvine,CA,92612,Pacific Standard Time,GMT-08:00,America/Los_Angeles,08:00,20:00,08:00,20:00,08:00,20:00,08:00,20:00,08:00,20:00,08:00,20:00,08:00,20:00
11581,79626-102648,US,LS,33.54666,-117.793538,600 N Pacific Coast,laguna beach,CA,926511513,Pacific Standard Time,GMT-08:00,America/Los_Angeles,06:00,19:00,06:00,19:00,06:00,19:00,06:00,19:00,06:00,19:00,06:00,19:00,06:00,19:00
11582,14011-108036,US,CO,33.543187,-117.786034,180 N. Coast Hwy,laguna beach,CA,926511819,Pacific Standard Time,GMT-08:00,America/Los_Angeles,05:30,19:00,05:30,19:00,05:30,19:00,05:30,19:00,05:30,19:30,05:30,19:30,05:30,19:30
11583,8695-91420,US,CO,38.50795,-90.442786,699 Gravois Bluffs Blvd.|101,fenton,MO,630267743,Central Standard Time,GMT-06:00,America/Chicago,05:00,21:00,05:00,21:00,05:00,21:00,05:00,21:00,05:00,21:00,05:00,21:00,05:00,21:00
11584,56947-289485,US,LS,38.502843,-90.447719,197 Gravois Bluffs Plaza Dr.,fenton,MO,630264013,Central Standard Time,GMT-06:00,America/Chicago,08:00,21:00,08:00,21:00,08:00,21:00,08:00,21:00,08:00,21:00,08:00,21:00,08:00,21:00
11585,10563-100589,US,CO,38.536537,-90.496534,"922 South Meramec Station Rd.,|A",valley park,MO,630882043,Central Standard Time,GMT-06:00,America/Chicago,05:00,17:00,05:00,17:00,05:00,17:00,05:00,17:00,05:00,17:00,05:00,17:00,05:30,17:00
11586,76922-90446,US,LS,38.620325,-90.51782,1272 Town & Country Crossing,chesterfield,MO,63011,Central Standard Time,GMT-06:00,America/Chicago,08:00,21:00,08:00,21:00,08:00,21:00,08:00,21:00,08:00,21:00,08:00,21:00,08:00,21:00
11587,24258-234464,US,CO,38.621897,-90.519156,1024 Town & Country Crossing Dr|Unit B|Town and Country,town and country,MO,630170610,Central Standard Time,GMT-06:00,America/Chicago,05:30,21:00,05:30,21:00,05:30,21:00,05:30,21:00,05:30,21:00,05:30,21:00,05:30,21:00
11588,2654-35719,US,CO,38.592668,-90.543014,14900 Manchester Road|Olde Towne Plaza,ballwin,MO,630114621,Central Standard Time,GMT-06:00,America/Chicago,05:30,15:30,05:30,15:30,05:30,15:30,05:30,15:30,05:30,15:30,05:30,15:30,05:30,15:30
11589,60649-293209,US,LS,38.594702,-90.547168,15025 Manchester Rd,ballwin,MO,63011,Central Standard Time,GMT-06:00,America/Chicago,08:00,21:00,08:00,21:00,08:00,21:00,08:00,21:00,08:00,21:00,08:00,21:00,08:00,21:00
11590,20791-208087,US,LS,38.414095,-90.39546,3849 Vogel Rd,arnold,MO,63010,Central Standard Time,GMT-06:00,America/Chicago,08:00,21:00,08:00,21:00,08:00,21:00,08:00,21:00,08:00,21:00,08:00,21:00,08:00,21:00
11591,5543-1657,US,CO,37.848197,-122.031681,3225 Danville Boulevard,alamo,CA,945071913,Pacific Standard Time,GMT-08:00,America/Los_Angeles,04:30,19:00,Closed,Closed,04:30,19:00,04:30,19:00,04:30,19:00,05:00,19:00,05:00,19:00
11592,13607-107499,US,CO,30.263974,-82.107135,9200 SR 228,macclenny,FL,320634738,Eastern Standard Time,GMT-05:00,America/New_York,05:30,21:00,05:30,21:00,05:30,21:00,05:30,21:00,05:30,21:00,06:00,21:00,06:00,21:00
11593,65630-298375,US,CO,30.10427,-81.827759,1795 Blanding Blvd,middleburg,FL,32068,Eastern Standard Time,GMT-05:00,America/New_York,05:00,21:00,05:00,21:00,05:00,21:00,05:00,21:00,05:00,22:00,06:00,22:00,06:00,21:00
11594,17891-175724,US,LS,30.102117,-81.723567,1490 County Rd 220,fleming island,FL,320037927,Eastern Standard Time,GMT-05:00,America/New_York,08:00,21:00,08:00,21:00,08:00,21:00,08:00,21:00,08:00,21:00,08:00,21:00,08:00,20:00
11595,8372-290008,US,CO,30.101003,-81.719363,2000 East West Parkway|Suite 101,fleming island,FL,32003,Eastern Standard Time,GMT-05:00,America/New_York,05:30,22:00,05:30,22:00,05:30,22:00,05:30,22:00,05:30,22:00,07:00,21:00,07:00,21:00
11596,11996-105613,US,CO,30.179828,-82.673224,2511 W. US 90,lake city,FL,320557256,Eastern Standard Time,GMT-05:00,America/New_York,05:30,21:00,05:30,21:00,05:30,21:00,05:30,21:00,05:30,21:00,05:30,21:00,05:30,21:00
11597,58511-291905,US,CO,30.092709,-81.522345,935 Durbin Pavilion Dr.|105,jacksonville,FL,322594139,Eastern Standard Time,GMT-05:00,America/New_York,05:30,20:00,05:30,20:00,05:30,20:00,05:30,20:00,05:30,20:00,05:30,20:00,05:30,20:00
11598,13645-107355,US,CO,30.064486,-81.500099,105 Fireworks Alley,st. augustine,FL,320921750,Eastern Standard Time,GMT-05:00,America/New_York,05:00,20:30,05:00,20:30,05:00,20:30,05:00,20:30,05:00,20:30,05:30,20:30,06:00,20:00
11599,2217-191325,US,CO,42.154055,-88.136291,101 W. Main St.|Barrington Village Center,barrington,IL,600104302,Central Standard Time,GMT-06:00,America/Chicago,05:00,21:30,05:00,21:30,05:00,21:30,05:00,21:30,05:00,21:30,05:30,21:30,05:30,20:30
11600,9645-96469,US,CO,42.153404,-88.128677,120 S. Northwest Hwy.,barrington,IL,600104611,Central Standard Time,GMT-06:00,America/Chicago,04:30,21:00,04:30,21:00,04:30,21:00,04:30,21:00,04:30,21:00,05:00,21:00,05:00,19:30
11601,14295-107071,US,CO,40.660653,-74.17145,651 Kapkowski Road|1456|Jersey Gardens,elizabeth,NJ,72014934,Eastern Standard Time,GMT-05:00,America/New_York,10:00,17:00,10:00,17:00,10:00,17:00,10:00,17:00,10:00,17:00,10:00,17:00,10:00,17:00
11602,52542-281876,US,LS,40.688558,-74.177113,3 Brewster Rd.,newark,NJ,7114,Eastern Standard Time,GMT-05:00,America/New_York,05:00,20:00,05:00,20:00,05:00,20:00,05:00,20:00,05:00,20:00,05:00,20:00,05:00,20:00
11603,52541-281875,US,LS,40.690478,-74.17649,3 Brewster Rd.,newark,NJ,7114,Eastern Standard Time,GMT-05:00,America/New_York,05:00,20:00,05:00,20:00,05:00,20:00,05:00,20:00,05:00,20:00,05:00,20:00,05:00,20:00
11604,27923-248844,US,LS,40.693971,-74.172614,3 Brewster Rd.,newark,NJ,7114,Eastern Standard Time,GMT-05:00,America/New_York,05:00,21:00,05:00,21:00,05:00,21:00,05:00,21:00,05:00,21:00,05:00,21:00,05:00,21:00
11605,27686-248004,US,LS,40.694647,-74.176584,3 Brewster Rd.,newark,NJ,7114,Eastern Standard Time,GMT-05:00,America/New_York,05:00,21:00,05:00,21:00,05:00,21:00,05:00,21:00,05:30,21:00,05:00,21:00,05:00,21:00
11606,27685-248005,US,LS,40.695768,-74.173264,3 Brewster Rd.,newark,NJ,7114,Eastern Standard Time,GMT-05:00,America/New_York,05:00,21:00,05:00,21:00,05:00,21:00,05:00,21:00,05:00,21:00,05:00,21:00,05:00,21:00
11607,75593-77287,US,LS,40.696456,-74.177658,"Terminal C, Space 86",newark,NJ,7114,Eastern Standard Time,GMT-05:00,America/New_York,05:00,21:00,05:00,21:00,05:00,21:00,05:00,21:00,05:00,21:00,05:00,21:00,05:00,21:00
11608,60742-285693,US,LS,40.623865,-74.139073,1520 Forest Ave,staten island,NY,10302,Eastern Standard Time,GMT-05:00,America/New_York,07:00,21:00,07:00,21:00,07:00,21:00,07:00,21:00,07:00,21:00,07:00,21:00,07:00,21:00
11609,73780-111885,US,LS,40.668712,-74.107085,1 Lefante Way,bayonne,NJ,70025070,Eastern Standard Time,GMT-05:00,America/New_York,06:00,20:00,06:00,20:00,06:00,20:00,06:00,20:00,06:00,20:00,06:00,20:00,06:00,20:00
11610,12457-151964,US,LS,40.678147,-74.233747,1000 Morris Ave,union,NJ,70837133,Eastern Standard Time,GMT-05:00,America/New_York,08:00,16:00,Closed,Closed,08:00,16:00,08:00,16:00,08:00,16:00,Closed,Closed,Closed,Closed
11611,58417-291863,US,CO,40.671911,-74.105359,26 Goldsborough Dr,bayonne,NJ,7002,Eastern Standard Time,GMT-05:00,America/New_York,05:30,19:30,05:30,19:30,05:30,19:30,05:30,19:30,05:30,19:30,05:30,19:30,05:30,19:30
11612,58526-290468,US,CO,40.683003,-74.233041,1011 G Morris Ave|Suite A,union,NJ,70837120,Eastern Standard Time,GMT-05:00,America/New_York,05:00,21:00,05:00,21:00,05:00,21:00,05:00,21:00,05:00,21:00,06:00,22:00,06:00,22:00
11613,7739-44906,US,CO,40.619741,-74.248883,693 West Edgar Road|Aviation Plaza at Linden,linden,NJ,70366574,Eastern Standard Time,GMT-05:00,America/New_York,05:00,20:00,05:00,20:00,05:00,20:00,05:00,20:00,05:00,20:00,05:30,20:00,07:00,20:00
11614,54760-288491,US,CO,40.734438,-74.16486,1 Raymond Plaza West|Space C,newark,NJ,71025417,Eastern Standard Time,GMT-05:00,America/New_York,05:30,18:00,05:30,13:00,05:30,13:00,05:30,13:00,05:30,13:00,Closed,Closed,Closed,Closed
11615,7362-1506,US,CO,40.586625,-74.167815,2505 Richmond Avenue,staten island,NY,103145881,Eastern Standard Time,GMT-05:00,America/New_York,06:00,20:00,06:00,20:00,06:00,20:00,06:00,20:00,06:00,20:00,06:00,20:00,06:00,20:00
11616,26152-243613,US,CO,40.738663,-74.170594,687 Broad Street,newark,NJ,7102,Eastern Standard Time,GMT-05:00,America/New_York,06:00,16:00,06:00,16:00,06:00,16:00,06:00,16:00,06:00,16:00,06:00,16:00,06:00,16:00
11617,75299-79635,US,LS,40.741961,-74.176028,350 Martin Luther King Blvd,newark,NJ,71021801,Eastern Standard Time,GMT-05:00,America/New_York,08:00,20:00,08:00,20:00,08:00,20:00,08:00,20:00,08:00,16:00,08:00,13:00,Closed,Closed
11618,56477-289185,US,LS,40.745146,-74.170166,One Washington Park,newark,NJ,7102,Eastern Standard Time,GMT-05:00,America/New_York,08:00,20:00,08:00,20:00,08:00,20:00,08:00,20:00,08:00,16:00,08:00,13:00,Closed,Closed
11619,73857-94450,US,LS,40.678828,-74.28313,801 Kenilworth Blvd,kenilworth,NJ,7033,Eastern Standard Time,GMT-05:00,America/New_York,06:00,21:00,06:00,21:00,06:00,21:00,06:00,21:00,06:00,21:00,07:00,21:00,07:00,21:00
11620,20466-205025,US,CO,40.658093,-74.291216,345 N Ave E,cranford,NJ,70162445,Eastern Standard Time,GMT-05:00,America/New_York,05:00,21:00,05:00,13:00,05:00,13:00,05:00,13:00,05:00,13:00,06:00,21:00,06:00,21:00
11621,48184-261865,US,CO,40.759329,-74.161182,143 Passaic Ave,kearny,NJ,70321107,Eastern Standard Time,GMT-05:00,America/New_York,05:30,21:00,05:30,21:00,05:30,21:00,05:30,21:00,05:30,21:00,06:00,21:00,06:00,21:00
11622,21510-212987,US,CO,40.654595,-74.302704,200 S Ave E|Suite 101,cranford,NJ,70162988,Eastern Standard Time,GMT-05:00,America/New_York,05:00,20:00,05:00,20:00,05:00,20:00,05:00,20:00,05:00,20:00,06:00,20:00,06:00,20:00
11623,26748-245298,US,CO,40.730986,-74.277034,160 Maplewood Avenue,maplewood,NJ,70402698,Eastern Standard Time,GMT-05:00,America/New_York,06:00,21:00,06:00,21:00,06:00,21:00,06:00,21:00,06:00,21:00,06:00,21:00,06:00,21:00
11624,7483-8050,US,CO,40.688812,-74.307238,2698 Route 22 East,union,NJ,70838574,Eastern Standard Time,GMT-05:00,America/New_York,05:00,22:30,05:00,22:30,05:00,22:30,05:00,22:30,05:00,22:30,06:00,22:30,06:00,22:30
11625,7291-1086,US,CO,40.746103,-74.259846,11 Sloan Street,south orange,NJ,70791713,Eastern Standard Time,GMT-05:00,America/New_York,05:30,18:00,05:30,18:00,05:30,12:00,05:30,18:00,05:30,18:00,06:00,18:00,06:00,18:00
11626,7276-757,US,CO,40.72401,-74.307363,343 Millburn Avenue,millburn,NJ,70411355,Eastern Standard Time,GMT-05:00,America/New_York,05:30,20:00,05:30,20:00,05:30,20:00,05:30,20:00,05:30,20:00,06:00,20:00,06:00,20:00
11627,73690-128388,US,LS,43.692647,-116.352234,250 South Eagle Rd,eagle,ID,836165906,Mountain Standard Time,GMT-07:00,America/Denver,06:00,19:00,06:00,19:00,06:00,19:00,06:00,19:00,06:00,19:00,06:00,19:00,06:00,19:00
11628,3236-251306,US,CO,43.687362,-116.33407,1598 E. Riverside Dr.,eagle,ID,836166237,Mountain Standard Time,GMT-07:00,America/Denver,05:00,21:00,05:00,21:00,05:00,17:00,05:00,21:00,05:00,21:00,05:00,21:00,05:30,20:00
11629,10268-273044,US,CO,43.662491,-116.352824,13681 W. Chinden Blvd.,boise,ID,83713,Mountain Standard Time,GMT-07:00,America/Denver,05:00,21:00,05:00,21:00,05:00,17:00,05:00,21:00,05:00,21:00,05:30,21:00,05:30,21:00
11630,27551-245465,US,LS,43.661256,-116.351508,6280 N Eagle Rd,boise,ID,83713,Mountain Standard Time,GMT-07:00,America/Denver,08:00,21:00,08:00,21:00,08:00,21:00,08:00,21:00,08:00,21:00,08:00,21:00,08:00,21:00
11631,73101-18219,US,LS,43.647486,-116.352443,4700 North Eagle Road|Albertsons - Eagle McMillan (177),boise,ID,837130744,Mountain Standard Time,GMT-07:00,America/Denver,06:00,19:00,06:00,19:00,06:00,19:00,06:00,19:00,06:00,19:00,06:00,19:00,06:00,19:00
11632,18191-179886,US,LS,43.665527,-116.411539,1400 W Chinden,meridian,ID,83646,Mountain Standard Time,GMT-07:00,America/Denver,06:00,19:00,06:00,19:00,06:00,19:00,06:00,19:00,06:00,19:00,06:00,19:00,06:00,19:00
11633,56079-289810,US,CO,43.663361,-116.41149,1480 W. Chinden Blvd.,meridian,ID,836465328,Mountain Standard Time,GMT-07:00,America/Boise,05:30,20:00,05:30,20:00,05:30,17:00,05:30,20:00,05:30,20:00,05:30,20:00,05:30,20:00
11634,73137-21103,US,LS,43.634488,-116.315901,10700 Ustick Road,boise,ID,837135103,Mountain Standard Time,GMT-07:00,America/Denver,06:00,19:00,06:00,19:00,06:00,19:00,06:00,19:00,06:00,19:00,06:00,19:00,06:00,18:00
11635,10732-98969,US,CO,43.650109,-116.280126,4971 N. Glenwood St.,garden city,ID,837141325,Mountain Standard Time,GMT-07:00,America/Denver,05:00,19:00,05:00,19:00,05:00,17:00,05:00,19:00,05:00,19:00,05:00,19:00,06:00,19:00
11636,26353-101209,US,LS,43.620995,-116.372271,1850 E Fairview Avenue,meridian,ID,836425702,Mountain Standard Time,GMT-07:00,America/Denver,07:00,19:00,06:00,19:00,06:00,19:00,06:00,19:00,06:00,19:00,06:00,19:00,07:00,19:00
11637,55596-289318,US,CO,43.649127,-116.434159,4879 N. Ten Mile Rd,meridian,ID,836466793,Mountain Standard Time,GMT-07:00,America/Denver,05:00,21:00,05:00,21:00,05:00,17:00,05:00,21:00,05:00,21:00,05:00,21:00,06:00,20:00
11638,55733-282860,US,LS,43.617892,-116.351228,3499 E Fairview Ave,meridian,ID,83642,Mountain Standard Time,GMT-07:00,America/Denver,06:00,20:00,06:00,20:00,06:00,20:00,06:00,20:00,06:00,20:00,06:00,20:00,06:00,20:00
11639,8832-94654,US,CO,43.617477,-116.355159,3120 E Florence Street,meridian,ID,836421586,Mountain Standard Time,GMT-07:00,America/Denver,05:00,20:00,05:00,20:00,05:00,17:00,05:00,20:00,05:00,20:00,05:00,20:00,06:00,20:00
11640,59399-292901,US,CO,43.61918,-116.322225,11211 W. Fairview Ave.,boise,ID,83713,Mountain Standard Time,GMT-07:00,America/Boise,05:00,20:00,05:00,20:00,05:00,17:00,05:00,20:00,05:00,20:00,05:30,20:00,05:30,19:00
11641,9879-282862,US,CO,43.651533,-116.252296,5021 W. State Street,boise,ID,837033327,Mountain Standard Time,GMT-07:00,America/Denver,05:00,20:30,05:00,20:30,05:00,17:00,05:00,20:30,05:00,20:30,05:30,20:30,05:30,20:30
11642,14832-133707,US,CO,43.604149,-116.35413,3240 East Louise Dr.|Suite #100|The Portico,meridian,ID,836425107,Mountain Standard Time,GMT-07:00,America/Denver,05:00,19:00,05:00,19:00,05:00,17:00,05:00,19:00,05:00,19:00,05:00,19:00,05:00,19:00
11643,13519-104905,US,CO,43.61903,-116.273786,7373 West Fairview,boise,ID,837048512,Mountain Standard Time,GMT-07:00,America/Denver,05:00,19:00,05:00,19:00,05:00,17:00,05:00,19:00,05:00,19:00,05:30,19:00,05:30,19:00
11644,15773-131804,US,LS,43.618018,-116.434332,3301 W Cherry Ln,meridian,ID,836421119,Mountain Standard Time,GMT-07:00,America/Denver,06:00,19:00,06:00,19:00,06:00,19:00,06:00,19:00,06:00,19:00,06:00,19:00,06:00,19:00
11645,8831-94653,US,CO,43.599566,-116.393351,536 S Meridian Rd,meridian,ID,836424539,Mountain Standard Time,GMT-07:00,America/Denver,05:00,20:00,05:00,20:00,05:00,17:00,05:00,20:00,05:00,20:00,05:30,20:00,05:30,20:00
11646,3246-1600,US,CO,43.604695,-116.282635,8077 Franklin Road|Franklin Towne Plaza,boise,ID,837090620,Mountain Standard Time,GMT-07:00,America/Denver,05:30,21:00,05:30,21:00,05:30,17:00,05:30,21:00,05:30,21:00,05:30,21:00,05:30,21:00
11647,25968-192846,US,LS,43.589271,-116.315612,10751 W Overland Rd,boise,ID,83709,Mountain Standard Time,GMT-07:00,America/Denver,07:00,19:00,06:00,19:00,06:00,19:00,06:00,19:00,06:00,19:00,06:00,19:00,07:00,19:00
11648,48352-260924,US,CO,43.587826,-116.393138,1870 Meridian Road,meridian,ID,836429026,Mountain Standard Time,GMT-07:00,America/Denver,05:00,20:00,05:00,20:00,05:00,17:00,05:00,20:00,05:00,20:00,05:00,20:00,05:00,20:00
11649,13571-106831,US,CO,43.590008,-116.285159,8275 West Overland Rd.,boise,ID,837091637,Mountain Standard Time,GMT-07:00,America/Denver,05:00,20:00,05:00,20:00,05:00,17:00,05:00,20:00,05:00,20:00,05:00,20:00,06:00,20:00
11650,72728-62299,US,LS,43.603569,-116.245531,5230 W. Franklin Road,boise,ID,837051109,Mountain Standard Time,GMT-07:00,America/Denver,07:00,19:00,06:00,19:00,06:00,19:00,06:00,19:00,06:00,19:00,06:00,19:00,07:00,19:00
11651,3235-1599,US,CO,43.624253,-116.212359,1797 W. State Street,boise,ID,837023924,Mountain Standard Time,GMT-07:00,America/Denver,05:00,20:00,05:00,20:00,05:00,17:00,05:00,20:00,05:00,20:00,05:00,20:00,05:00,20:00
11652,73130-21441,US,LS,43.624921,-116.209506,1650 W. State St.,boise,ID,837024040,Mountain Standard Time,GMT-07:00,America/Denver,06:00,19:00,06:00,19:00,06:00,19:00,06:00,19:00,06:00,19:00,06:00,19:00,06:00,19:00
11653,29658-253952,US,LS,43.591641,-116.2454,5100 Overland Rd,boise,ID,83705,Mountain Standard Time,GMT-07:00,America/Denver,06:00,19:00,06:00,19:00,06:00,19:00,06:00,19:00,06:00,19:00,06:00,19:00,06:00,19:00
11654,24499-237074,US,CO,43.596991,-116.213409,812 S Vista Ave,boise,ID,837052423,Mountain Standard Time,GMT-07:00,America/Denver,05:00,20:00,05:00,20:00,05:00,17:00,05:00,20:00,05:00,20:00,05:00,20:00,05:00,20:00
11655,51551-263184,US,LS,43.601835,-116.201092,1700 University Drive,boise,ID,83725,Mountain Standard Time,GMT-07:00,America/Denver,07:30,19:00,07:30,19:00,07:30,19:00,07:30,19:00,07:30,19:00,08:00,16:00,08:00,16:00
11656,73478-44381,US,LS,43.589345,-116.215251,1653 South Vista Ave,boise,ID,837053172,Mountain Standard Time,GMT-07:00,America/Denver,06:00,19:00,06:00,19:00,06:00,19:00,06:00,19:00,06:00,19:00,06:00,19:00,06:00,19:00
11657,3266-2000,US,CO,43.599461,-116.192995,1100 Broadway Ave.,boise,ID,837063627,Mountain Standard Time,GMT-07:00,America/Denver,05:00,21:00,05:00,21:00,05:00,17:00,05:00,21:00,05:00,21:00,05:00,21:00,05:00,21:00
11658,55730-282859,US,LS,43.597547,-116.194575,1219 S Broadway Ave,boise,ID,83706,Mountain Standard Time,GMT-07:00,America/Denver,06:00,20:00,06:00,20:00,06:00,20:00,06:00,20:00,06:00,20:00,06:00,20:00,06:00,20:00
11659,50198-269946,US,LS,43.545184,-116.313249,10656 Lake Hazel,boise,ID,83634,Mountain Standard Time,GMT-07:00,America/Denver,06:00,19:00,06:00,19:00,06:00,19:00,06:00,19:00,06:00,19:00,06:00,19:00,06:00,19:00
11660,22244-202964,US,CO,43.597139,-116.51367,1401 North Happy Valley Road,nampa,ID,836875234,Mountain Standard Time,GMT-07:00,America/Denver,05:00,20:30,05:00,20:30,05:00,17:00,05:00,20:30,05:00,21:00,05:00,21:00,05:30,21:00
11661,76698-102604,US,LS,43.5954,-116.5371,16300 N Marketplace Blvd,nampa,ID,836877910,Mountain Standard Time,GMT-07:00,America/Denver,08:00,21:00,08:00,21:00,08:00,21:00,08:00,21:00,08:00,21:00,08:00,21:00,08:00,21:00
11662,56512-289942,US,LS,43.581217,-116.172142,909 E. Parkcenter Blvd.,boise,ID,83706,Mountain Standard Time,GMT-07:00,America/Denver,06:00,19:00,06:00,19:00,06:00,19:00,06:00,19:00,06:00,19:00,06:00,19:00,06:00,19:00
11663,9297-94984,US,CO,43.579034,-116.17448,672 East Boise Avenue,boise,ID,837065118,Mountain Standard Time,GMT-07:00,America/Denver,05:00,20:00,05:00,20:00,05:00,17:00,05:00,20:00,05:00,20:00,05:00,20:00,05:30,19:00
11664,72706-33962,US,LS,43.568368,-116.187139,3527 Federal Way,boise,ID,837055204,Mountain Standard Time,GMT-07:00,America/Denver,07:00,19:00,06:00,19:00,06:00,19:00,06:00,19:00,06:00,19:00,06:00,19:00,07:00,19:00
11665,4130-104219,US,LS,43.862287,-116.491103,640 Highway 16,emmett,ID,836179461,Mountain Standard Time,GMT-07:00,America/Boise,06:00,19:00,06:00,19:00,06:00,19:00,06:00,19:00,06:00,19:00,06:00,19:00,06:00,19:00
11666,13688-107970,US,CO,43.602048,-116.598752,1451 Caldwell Blvd,nampa,ID,836511607,Mountain Standard Time,GMT-07:00,America/Denver,05:00,21:00,05:00,21:00,05:00,17:00,05:00,21:00,05:00,21:00,06:00,21:00,06:00,21:00
11667,22133-206324,US,LS,43.491244,-116.406794,1403 N Meridian Rd,kuna,ID,83634,Mountain Standard Time,GMT-07:00,America/Denver,06:00,19:00,06:00,19:00,06:00,19:00,06:00,19:00,06:00,19:00,06:00,19:00,06:00,19:00
11668,24101-235165,US,LS,43.54301,-116.15313,6560 S Federal Wy,boise,ID,83716,Mountain Standard Time,GMT-07:00,America/Denver,05:00,19:00,05:00,19:00,05:00,19:00,05:00,19:00,05:00,19:00,05:00,19:00,05:00,19:00
11669,19869-193724,US,CO,43.555351,-116.572575,1324 12th Ave Rd,nampa,ID,836866004,Mountain Standard Time,GMT-07:00,America/Denver,05:00,21:00,05:00,15:00,05:00,15:00,05:00,15:00,05:00,15:00,05:00,20:00,05:30,20:00
11670,47431-257945,US,CO,43.647626,-116.666342,3020 Cleveland Blvd.,caldwell,ID,836056034,Mountain Standard Time,GMT-07:00,America/Denver,05:30,21:00,05:30,21:00,05:30,17:00,05:30,21:00,05:30,21:00,06:00,21:00,06:00,20:00
11671,21287-208886,US,LS,39.243987,-77.272233,22700 Sweet Shrub Dr,clarksburg,MD,20871,Eastern Standard Time,GMT-05:00,America/New_York,06:00,19:00,06:00,19:00,06:00,19:00,06:00,19:00,06:00,19:00,06:00,19:00,06:00,19:00
11672,74249-67201,US,LS,39.365281,-77.164873,337 East Ridgeville Blvd,mt. airy,MD,217715201,Eastern Standard Time,GMT-05:00,America/New_York,06:00,20:00,06:00,20:00,06:00,20:00,06:00,20:00,06:00,20:00,06:00,20:00,06:00,20:00
11673,55662-289445,US,CO,39.286534,-77.208092,26141 Ridge Road,damascus,MD,208721867,Eastern Standard Time,GMT-05:00,America/New_York,05:00,21:30,05:00,21:30,05:00,21:30,05:00,21:30,05:00,21:30,05:30,21:30,05:30,21:30
11674,3975-146704,US,LS,39.28986,-77.202669,9807 Main St,damascus,MD,208722015,Eastern Standard Time,GMT-05:00,America/New_York,06:00,20:00,06:00,20:00,06:00,20:00,06:00,20:00,06:00,20:00,06:00,20:00,06:00,20:00
11675,11965-105196,US,CO,39.364618,-77.159745,400 Ridgeville Blvd.|Mount Airy Shopping Center,mt. airy,MD,217715216,Eastern Standard Time,GMT-05:00,America/New_York,04:30,21:00,04:30,21:00,04:30,21:00,04:30,21:00,04:30,21:00,05:00,21:00,05:00,21:00
11676,7634-32219,US,CO,39.203367,-77.248568,20934 Frederick Road|Unit B-1A,germantown,MD,208764123,Eastern Standard Time,GMT-05:00,America/New_York,05:00,21:30,05:00,21:30,05:00,21:30,05:00,21:30,05:00,22:00,05:00,22:00,06:00,21:30
11677,76257-95152,US,LS,39.198836,-77.249149,20900 Frederick Rd,germantown,MD,208764119,Eastern Standard Time,GMT-05:00,America/New_York,08:00,21:00,08:00,21:00,08:00,21:00,08:00,21:00,08:00,21:00,08:00,21:00,08:00,21:00
11678,74116-25288,US,LS,39.180585,-77.266535,19718 Germantown Rd.,germantown,MD,208741204,Eastern Standard Time,GMT-05:00,America/New_York,06:00,20:00,06:00,20:00,06:00,20:00,06:00,20:00,06:00,20:00,06:00,20:00,06:00,20:00
11679,7607-19960,US,CO,39.180229,-77.26628,19724 Germantown Road,germantown,MD,208741204,Eastern Standard Time,GMT-05:00,America/New_York,05:00,21:30,05:00,21:30,05:00,21:30,05:00,21:30,05:00,22:00,05:00,22:00,06:00,21:00
11680,10964-81202,US,CO,39.159848,-77.279413,13408 Kingsview Village Avenue|Kingsview Shopping Center,germantown,MD,208742914,Eastern Standard Time,GMT-05:00,America/New_York,05:30,21:00,05:30,21:00,05:30,21:00,05:30,21:00,05:30,21:00,05:30,21:00,06:00,20:30
11681,74244-66840,US,LS,39.18837,-77.184989,20211 Goshen Rd,gaithersburg,MD,208794000,Eastern Standard Time,GMT-05:00,America/New_York,06:00,20:00,06:00,20:00,06:00,20:00,06:00,20:00,06:00,20:00,06:00,20:00,06:00,20:00
11682,7401-1574,US,CO,39.144525,-77.219754,505 Quince Orchard Road|Space 12,gaithersburg,MD,208781436,Eastern Standard Time,GMT-05:00,America/New_York,00:00,00:00,00:00,00:00,00:00,00:00,00:00,00:00,00:00,00:00,00:00,00:00,00:00,00:00
11683,8743-280762,US,CO,39.123992,-77.23606,160 Kentlands Square Place,gaithersburg,MD,20878,Eastern Standard Time,GMT-05:00,America/New_York,05:00,22:30,05:00,22:30,05:00,22:30,05:00,22:30,05:00,22:30,05:00,22:30,05:30,21:30
11684,7480-8691,US,CO,39.155052,-77.165231,18240 Flower Hill Way|Flower Hill Shopping Center,gaithersburg,MD,208795300,Eastern Standard Time,GMT-05:00,America/New_York,05:30,20:30,05:30,20:30,05:30,20:30,05:30,20:30,05:30,20:30,06:00,20:30,06:00,20:30
11685,72578-103051,US,LS,47.820501,-122.334902,7500-B 196th SW,lynnwood,WA,980365090,Pacific Standard Time,GMT-08:00,America/Los_Angeles,06:00,19:00,06:00,19:00,06:00,19:00,06:00,19:00,06:00,19:00,06:00,19:00,06:00,19:00
